iyear,imonth,iday,country_txt,provstate,city,latitude,longitude,location,success,suicide,attacktype1,attacktype1_txt,targtype1,targtype1_txt,targsubtype1,targsubtype1_txt,corp1,target1,natlty1,natlty1_txt,gname,gtype,grace,weaptype1,weaptype1_txt,weapdetail,nkill,nkillus,nkillter,nwound,nwoundus,nwoundte,property,propextent,propextent_txt,propvalue,propcomment,ransom,ransomamt
1995,2,28,United States,California,San Francisco,37.777125,-122.419644,,1,0,7,Facility/Infrastructure Attack,5,Abortion Related,40,Clinics,Buena Vista Womens Service/Pregnancy Consultation*,Office Bldg,217,United States,Unknown,Right-Wing,NA,8,Incendiary,Incendiary,0,,,0,,,1,,,,,0,
1970,4,13,United States,Missouri,Kansas City,39.10296,-94.583062,,1,0,3,Bombing/Explosion,15,Religious Figures/Institutions,86,Place of Worship,Linwood Methodist Church,"Linwood Methodist Church, Kansas City",217,United States,Unknown,Anti-Christian,Anti-Christian,6,Explosives/Bombs/Dynamite,,0,0,0,0,0,0,1,3,Minor (likely < $1 million),,Natural gas regulator of Church was destroyed.  Windows of church and surrounding buildings shattered.,0,
1971,3,6,United States,Texas,Texarkana,33.42558,-94.048254,The incident occurred at New Town Church.,1,0,7,Facility/Infrastructure Attack,15,Religious Figures/Institutions,86,Place of Worship,Black Baptist Church,Mount Orange Baptist Church,217,United States,Unknown,Anti-Christian,Anti-Christian,8,Incendiary,Firebomb,0,0,0,0,0,0,1,3,Minor (likely < $1 million),200000,The church was destroyed.,0,
1971,3,6,United States,Texas,Texarkana,33.42558,-94.048254,The incident occurred at New Town Church.,1,0,7,Facility/Infrastructure Attack,15,Religious Figures/Institutions,86,Place of Worship,Black Baptist Church,St. Paul's Baptist Church,217,United States,Unknown,Anti-Christian,Anti-Christian,8,Incendiary,Firebomb,0,0,0,0,0,0,1,3,Minor (likely < $1 million),175000,The church was destroyed.,0,
1971,3,7,United States,Texas,Texarkana,33.42558,-94.048254,The incident occurred at New Town Church.,0,0,7,Facility/Infrastructure Attack,15,Religious Figures/Institutions,86,Place of Worship,Black Baptist Church,New Town Church,217,United States,Unknown,Anti-Christian,Anti-Christian,8,Incendiary,The firebomb sputtered but failed to explode,0,0,0,0,0,0,0,,,,,0,
1971,3,7,United States,Texas,Texarkana,33.42558,-94.048254,The incident occurred at New Town Church.,1,0,7,Facility/Infrastructure Attack,15,Religious Figures/Institutions,86,Place of Worship,Black Baptist Church,Holy Chapel,217,United States,Unknown,Anti-Christian,Anti-Christian,8,Incendiary,Firebomb,0,0,0,0,0,0,1,3,Minor (likely < $1 million),,The pulpit was burnt.,0,
1979,9,21,United States,Pennsylvania,Philadelphia,39.95227,-75.162369,,1,0,3,Bombing/Explosion,15,Religious Figures/Institutions,,,,Public platform where pope was to hold open air mass,217,United States,Unknown,Anti-Christian,Anti-Christian,6,Explosives/Bombs/Dynamite,Explosive,0,,,0,,,1,,,,,0,
1990,1,30,United States,Texas,Houston,29.729316,-95.433578,3700 Southwest Freeway,1,0,3,Bombing/Explosion,15,Religious Figures/Institutions,85,Religious Figure,Christian Evangelist,John Osteen,217,United States,Unknown,Anti-Christian,Anti-Christian,6,Explosives/Bombs/Dynamite,Shoebox sized pipe bomb filled with large nails wrapped in a package,0,0,0,1,1,0,0,,,,,0,
1990,4,27,United States,Virginia,Virginia Beach,36.848311,-75.979278,,1,0,3,Bombing/Explosion,15,Religious Figures/Institutions,85,Religious Figure,Christian Broadcasting Network,Reverend Pat Robertson,217,United States,Unknown,Anti-Christian,Anti-Christian,6,Explosives/Bombs/Dynamite,Explosive device placed in a six inch package,0,0,0,1,1,0,0,,,,,0,
1995,1,29,United States,Tennessee,Columbia,35.615725,-87.035447,,1,0,2,Armed Assault,15,Religious Figures/Institutions,86,Place of Worship,,Church,217,United States,Unknown,Anti-Christian,Anti-Christian,8,Incendiary,Incendiary,0,,,0,,,1,,,,,0,
1995,1,29,United States,Tennessee,Columbia,35.615725,-87.035447,,1,0,2,Armed Assault,15,Religious Figures/Institutions,86,Place of Worship,,Church,217,United States,Unknown,Anti-Christian,Anti-Christian,8,Incendiary,Incendiary,0,,,0,,,1,,,,,0,
1995,11,15,United States,Massachusetts,Boston,42.358635,-71.056699,,0,0,3,Bombing/Explosion,15,Religious Figures/Institutions,86,Place of Worship,Christian Science World Headquarters,Christian Science Church,217,United States,Unknown,Anti-Christian,Anti-Christian,6,Explosives/Bombs/Dynamite,Explosive,0,,,0,,,1,,,,,0,
1996,1,1,United States,Alabama,Opelika,32.6505,-85.380649,,1,0,1,Assassination,15,Religious Figures/Institutions,85,Religious Figure,,Episcopal Priest,217,United States,Unknown,Anti-Christian,Anti-Christian,6,Explosives/Bombs/Dynamite,Explosive,0,,,1,1,,1,,,,,0,
1996,1,12,United States,Virginia,Virginia Beach,36.848311,-75.979278,,0,0,3,Bombing/Explosion,15,Religious Figures/Institutions,85,Religious Figure,Christian Broadcasting Network,Reverend Pat Robertson,217,United States,Unknown,Anti-Christian,Anti-Christian,6,Explosives/Bombs/Dynamite,Explosive device placed in a six inch package,0,0,0,0,0,0,0,,,,,0,
1997,12,30,United States,Illinois,Oakwood,40.11411,-87.778197,,1,0,3,Bombing/Explosion,15,Religious Figures/Institutions,86,Place of Worship,Oakwood United Methodist Church,church,217,United States,Unknown,Anti-Christian,Anti-Christian,6,Explosives/Bombs/Dynamite,Explosive,1,1,,0,,,1,,,,,0,
2015,2,17,United States,Florida,Melbourne,28.122223,-80.689149,,1,0,7,Facility/Infrastructure Attack,15,Religious Figures/Institutions,86,Place of Worship,New Shiloh Christian Center,Church,217,United States,Unknown,Anti-Christian,Anti-Christian,8,Incendiary,,0,0,0,0,0,0,1,3,Minor (likely < $1 million),5000,"An unknown number of chairs and other furniture pieces were damaged in this attack. Additionally, a shed as well as an unknown number of locks and doors were damaged.",,
2015,6,22,United States,Tennessee,Knoxville,35.967509,-83.946033,The incident occurred in the College Hills area.,1,0,7,Facility/Infrastructure Attack,15,Religious Figures/Institutions,86,Place of Worship,College Hill Seventh Day Adventist Church,Church,217,United States,Unknown,Anti-Christian,Anti-Christian,8,Incendiary,,0,0,0,0,0,0,1,3,Minor (likely < $1 million),-99,A church building and a church van were damaged in this attack.,,
2015,6,23,United States,Georgia,Macon,32.823281,-83.664394,,1,0,7,Facility/Infrastructure Attack,15,Religious Figures/Institutions,86,Place of Worship,God's Power Church of Christ,Church,217,United States,Unknown,Anti-Christian,Anti-Christian,8,Incendiary,,0,0,0,0,0,0,1,3,Minor (likely < $1 million),-99,A church building was damaged in this attack.,,
2015,6,24,United States,North Carolina,Charlotte,35.213923,-80.790063,,1,0,7,Facility/Infrastructure Attack,15,Religious Figures/Institutions,86,Place of Worship,Briar Creek Baptist Church,Church,217,United States,Unknown,Anti-Christian,Anti-Christian,8,Incendiary,,0,0,0,0,0,0,1,3,Minor (likely < $1 million),250000,A church building was damaged in this attack.,,
2015,6,26,United States,South Carolina,Warrenville,33.505056,-81.818259,,1,0,7,Facility/Infrastructure Attack,15,Religious Figures/Institutions,86,Place of Worship,Glover Grove Missionary Baptist Church,Church,217,United States,Unknown,Anti-Christian,Anti-Christian,8,Incendiary,,0,0,0,0,0,0,1,3,Minor (likely < $1 million),-99,A church building was damaged in this attack.,,
2015,7,15,United States,Texas,Houston,29.779987,-95.327984,,1,0,7,Facility/Infrastructure Attack,15,Religious Figures/Institutions,86,Place of Worship,Fifth Ward Missionary Baptist Church,Church,217,United States,Unknown,Anti-Christian,Anti-Christian,8,Incendiary,,0,0,0,0,0,0,1,3,Minor (likely < $1 million),-99,The Fifth Ward Missionary Baptist Church was damaged in this attack,,
2015,7,19,United States,Illinois,Aurora,41.758165,-88.239197,,0,0,7,Facility/Infrastructure Attack,5,Abortion Related,40,Clinics,"Planned Parenthood Federation of America, Inc.",Clinic,217,United States,Unknown,Anti-Christian,Anti-Christian,8,Incendiary,,0,0,0,0,0,0,0,,,,,,
2015,8,2,United States,New Mexico,Las Cruces,32.294582,-106.754459,,1,0,3,Bombing/Explosion,15,Religious Figures/Institutions,86,Place of Worship,Calvary Baptist Church,Church,217,United States,Unknown,Anti-Christian,Anti-Christian,6,Explosives/Bombs/Dynamite,,0,0,0,0,0,0,1,3,Minor (likely < $1 million),-99,A church mailbox was damaged in this attack.,,
2015,8,2,United States,New Mexico,Las Cruces,32.319945,-106.790007,,1,0,3,Bombing/Explosion,15,Religious Figures/Institutions,86,Place of Worship,Holy Cross Catholic Church,Church,217,United States,Unknown,Anti-Christian,Anti-Christian,6,Explosives/Bombs/Dynamite,,0,0,0,0,0,0,1,3,Minor (likely < $1 million),-99,A garbage can and a glass entryway to the church were damaged in this attack.,,
2015,8,14,United States,New Mexico,Las Cruces,32.292512,-106.773223,,0,0,3,Bombing/Explosion,15,Religious Figures/Institutions,86,Place of Worship,First Presbyterian Church,Church,217,United States,Unknown,Anti-Christian,Anti-Christian,6,Explosives/Bombs/Dynamite,A pipe bomb was used in the attack.,0,0,0,0,0,0,0,,,,,,
2016,4,21,United States,Idaho,Bonners Ferry,48.684131,-116.316826,,1,0,7,Facility/Infrastructure Attack,15,Religious Figures/Institutions,86,Place of Worship,St. Ann's Curch,Catholic Church,217,United States,Unknown,Anti-Christian,Anti-Christian,8,Incendiary,,0,0,0,0,0,0,1,2,Major (likely > $1 million but < $1 billion),1000000,"Sources estimated that the fire caused $1,000,000 in damages to the church.",,
2016,4,26,United States,Massachusetts,Haverhill,42.7678,-71.04865,,1,0,7,Facility/Infrastructure Attack,15,Religious Figures/Institutions,86,Place of Worship,Riverside Church,Church,217,United States,Unknown,Anti-Christian,Anti-Christian,8,Incendiary,,0,0,0,0,0,0,1,3,Minor (likely < $1 million),70000,"Two exterior doors, several window frames, sections of vinyl sided walls, the rear entrance, and one side of the exterior of the church were damaged in this attack.",,
2016,5,25,United States,Washington,Vancouver,45.672237,-122.658793,,1,0,7,Facility/Infrastructure Attack,15,Religious Figures/Institutions,86,Place of Worship,First Congregational Church,Church,217,United States,Unknown,Anti-Christian,Anti-Christian,8,Incendiary,,0,0,0,0,0,0,1,2,Major (likely > $1 million but < $1 billion),1830000,A church was damaged in this attack.,,
2016,5,26,United States,Washington,Vancouver,45.710821,-122.635039,,1,0,7,Facility/Infrastructure Attack,15,Religious Figures/Institutions,86,Place of Worship,Liberty Bible Church,Church,217,United States,Unknown,Anti-Christian,Anti-Christian,8,Incendiary,,0,0,0,0,0,0,1,3,Minor (likely < $1 million),-99,A church was damaged in this attack.,,
2016,6,5,United States,New York,New York City,40.632326,-74.078752,The incident occurred in the Stapleton area of Staten Island.,1,0,7,Facility/Infrastructure Attack,15,Religious Figures/Institutions,86,Place of Worship,St. Paul's Memorial Church,Episcopal Church,217,United States,Unknown,Anti-Christian,Anti-Christian,8,Incendiary,A Molotov cocktail was used in the attack.,0,0,0,0,0,0,1,3,Minor (likely < $1 million),-99,A church was damaged in this attack.,,
2016,6,9,United States,New York,New York City,40.628247,-74.079766,The incident occurred in the Stapleton area of Staten Island,1,0,7,Facility/Infrastructure Attack,15,Religious Figures/Institutions,86,Place of Worship,Unknown,First Central Baptist Church,217,United States,Unknown,Anti-Christian,Anti-Christian,8,Incendiary,A Molotov cocktail was used in the attack.,0,0,0,0,0,0,1,3,Minor (likely < $1 million),-99,A church was damaged in this attack.,,
2016,7,25,United States,Nevada,Las Vegas,36.162257,-115.138854,,1,0,7,Facility/Infrastructure Attack,15,Religious Figures/Institutions,86,Place of Worship,Unknown,Mormon Church,217,United States,Unknown,Anti-Christian,Anti-Christian,8,Incendiary,,0,0,0,0,0,0,1,3,Minor (likely < $1 million),1000,A church building was damaged in this attack.,,
2016,9,2,United States,Nevada,Las Vegas,36.197294,-115.131528,,1,0,7,Facility/Infrastructure Attack,15,Religious Figures/Institutions,86,Place of Worship,Holy Trinity African Methodist Episcopal Church,Church,217,United States,Unknown,Anti-Christian,Anti-Christian,8,Incendiary,,0,0,0,0,0,0,1,3,Minor (likely < $1 million),-99,A church was damaged in this attack.,,
2016,10,3,United States,Nebraska,Lincoln,40.846244,-96.700429,,1,0,7,Facility/Infrastructure Attack,15,Religious Figures/Institutions,86,Place of Worship,Belmont Baptist Church,Church,217,United States,Unknown,Anti-Christian,Anti-Christian,8,Incendiary,,0,0,0,0,0,0,1,3,Minor (likely < $1 million),-99,A church was damaged in this attack.,,
2016,10,3,United States,Nebraska,Lincoln,40.846274,-96.700467,The incident occurred in the Belmont neighborhood.,1,0,7,Facility/Infrastructure Attack,15,Religious Figures/Institutions,86,Place of Worship,Belmont Baptist Church,Church,217,United States,Unknown,Anti-Christian,Anti-Christian,8,Incendiary,,0,0,0,0,0,0,1,3,Minor (likely < $1 million),-99,A church was damaged in this attack.,,
2016,10,9,United States,Florida,Century,30.963733,-87.267362,The incident occurred along Jefferson Avenue.,1,0,7,Facility/Infrastructure Attack,15,Religious Figures/Institutions,86,Place of Worship,Wesley Chapel Church,Church,217,United States,Unknown,Anti-Christian,Anti-Christian,8,Incendiary,,0,0,0,0,0,0,1,4,Unknown,-99,A church was damaged in this attack.,,
2016,11,25,United States,Washington,Tacoma,47.154901,-122.368098,,1,0,7,Facility/Infrastructure Attack,15,Religious Figures/Institutions,86,Place of Worship,Our Savior Lutheran Church,Church,217,United States,Unknown,Anti-Christian,Anti-Christian,8,Incendiary,,0,0,0,0,0,0,1,3,Minor (likely < $1 million),-99,A church was damaged in this attack.,,
2016,12,7,United States,California,Redlands,34.053546,-117.181537,,1,0,7,Facility/Infrastructure Attack,15,Religious Figures/Institutions,86,Place of Worship,First Baptist Church,Church,217,United States,Unknown,Anti-Christian,Anti-Christian,8,Incendiary,,0,0,0,0,0,0,1,3,Minor (likely < $1 million),2000,A church was damaged in this attack.,,
1994,12,14,United States,New York,Albany,42.651445,-73.755254,,1,0,5,Hostage Taking (Barricade Incident),8,Educational Institution,49,School/University/Educational Building,State Univeristy of New York-Albany,University Students,217,United States,Unknown,Other/Unknown,NA,5,Firearms,Firearm,0,,,1,,,1,,,,,0,
1970,7,26,United States,Wisconsin,Sparta,43.939135,-90.820369,,1,0,3,Bombing/Explosion,4,Military,27,Military Barracks/Base/Headquarters/Checkpost,,Camp McCoy,217,United States,American Servicemen's Union (ASU),Anti-Government,NA,6,Explosives/Bombs/Dynamite,Explosive,0,,,0,,,1,3,Minor (likely < $1 million),20000,,0,
1970,7,26,United States,Wisconsin,Sparta,43.939135,-90.820369,,1,0,3,Bombing/Explosion,16,Telecommunication,90,Telephone/Telegraph,,telephone exchange,217,United States,American Servicemen's Union (ASU),Anti-Government,NA,6,Explosives/Bombs/Dynamite,Explosive,0,,,0,,,1,,,,,0,
1970,7,26,United States,Wisconsin,Sparta,43.939135,-90.820369,,1,0,3,Bombing/Explosion,21,Utilities,107,Electricity,,electric power substation,217,United States,American Servicemen's Union (ASU),Anti-Government,NA,6,Explosives/Bombs/Dynamite,Explosive,0,,,0,,,1,,,,,0,
1974,3,7,United States,California,San Jose,37.338475,-121.885794,at storage tank,1,0,3,Bombing/Explosion,1,Business,4,Multinational Corporation,Shell Oil Company,storage tank,217,United States,Americans for Justice,Anti-Government,NA,6,Explosives/Bombs/Dynamite,,0,0,0,0,0,0,-9,,,,,,
1974,3,9,United States,California,Los Altos,37.383075,-122.114149,,1,0,3,Bombing/Explosion,1,Business,4,Multinational Corporation,Shell Oil Company,service station,217,United States,Americans for Justice,Anti-Government,NA,6,Explosives/Bombs/Dynamite,,0,0,0,0,0,0,-9,,,,,,
1974,6,15,United States,District of Columbia,Washington,38.89037,-77.031959,,0,0,8,Unarmed Assault,2,Government (General),14,Judge/Attorney/Court,Supreme Court Justices,,217,United States,Anti-Government extremists,Anti-Government,NA,7,Fake Weapons,Harmless substance,0,0,0,0,0,0,0,,,,,0,
1974,8,6,United States,California,Los Angeles,33.941589,-118.40853,Los Angeles International Airport,1,0,3,Bombing/Explosion,6,Airports & Aircraft,44,Airport,Airport,Los Angeles International Airport,217,United States,Anti-Government extremists,Anti-Government,NA,6,Explosives/Bombs/Dynamite,,3,3,0,36,36,0,1,3,Minor (likely < $1 million),-99,considerable damage including a 10 by 15 foot hole in the wall and several huge plate glass windows were shattered,,
1974,8,16,United States,California,Los Angeles,34.05349,-118.245319,,0,0,3,Bombing/Explosion,19,Transportation,101,Bus Station/Stop,Greyhound Bus Depot,Greyhound bus station in Los Angeles,217,United States,Anti-Government extremists,Anti-Government,NA,6,Explosives/Bombs/Dynamite,25-pound bomb,0,0,0,0,0,0,0,,,,,,
1975,2,3,United States,Colorado,Denver,39.74001,-104.992259,,1,0,3,Bombing/Explosion,2,Government (General),21,Government Building/Facility/Office,,Security and exchange Comm.,217,United States,Continental Revolutionary Army,Anti-Government,NA,6,Explosives/Bombs/Dynamite,Explosive,0,,,4,,,1,3,Minor (likely < $1 million),60000,,0,
1975,12,23,United States,Colorado,Denver,39.74001,-104.992259,,1,0,3,Bombing/Explosion,2,Government (General),21,Government Building/Facility/Office,,Federal Building (New Custom House),217,United States,Continental Revolutionary Army,Anti-Government,NA,6,Explosives/Bombs/Dynamite,Explosive,0,,,0,,,1,3,Minor (likely < $1 million),5000,,0,
1977,10,20,United States,New York,New York City,40.712784,-74.005941,,1,0,7,Facility/Infrastructure Attack,1,Business,7,Retail/Grocery/Bakery,,Air India Airline Office,92,India,Universal Proutist Revolutionary Federation,Anti-Government,Indian,8,Incendiary,Incendiary,0,,,0,,,1,,,,,0,
1977,11,29,United States,District of Columbia,Washington,38.89037,-77.031959,,1,0,2,Armed Assault,7,Government (Diplomatic),45,"Diplomatic Personnel (outside of embassy, consulate)",Indian Embassy,Indian Diplomat,92,India,Universal Proutist Revolutionary Federation,Anti-Government,Indian,9,Melee,Knives (2),0,0,0,1,0,0,0,,,,,0,
1986,3,3,United States,California,Culver City,33.988669,-118.389545,6071 Slauson Ave.,0,0,3,Bombing/Explosion,2,Government (General),21,Government Building/Facility/Office,Internal Revenue Service,"Internal Revenue Service offices, Culver City California",217,United States,"Up the IRS, Inc",Anti-Government,NA,6,Explosives/Bombs/Dynamite,Four pipe bombs,0,0,0,0,0,0,0,,,,,0,
1986,7,3,United States,Illinois,Chicago,41.88415,-87.632409,330 E. 220 Street,1,0,3,Bombing/Explosion,2,Government (General),21,Government Building/Facility/Office,Internal Revenue Service,"Internal Revenue Service Office, Lombard Illinois",217,United States,Anti-Government Group,Anti-Government,NA,6,Explosives/Bombs/Dynamite,Nine inch stick of dynamite placed in a clay pipe,0,0,0,0,0,0,1,3,Minor (likely < $1 million),,Glass doors and windows shattered,0,
1987,3,2,United States,California,Laguna Niguel,33.522526,-117.707553,,0,0,3,Bombing/Explosion,2,Government (General),21,Government Building/Facility/Office,Building housing Internal Revenue Service offices,"Internal Revenue Service building, Laguna Niguel California",217,United States,"Up the IRS, Inc",Anti-Government,NA,6,Explosives/Bombs/Dynamite,Five mortar shells consisting of small pipe nipples launched from a homemade firing device,0,0,0,0,0,0,0,,,,,0,
1988,7,8,United States,California,Laguna Niguel,33.522526,-117.707553,,0,0,3,Bombing/Explosion,2,Government (General),21,Government Building/Facility/Office,Utility pole that provided electricity to an office of the Internal Revenue Service,"Internal Revenue Service building, Laguna Niguel California",217,United States,"Up the IRS, Inc",Anti-Government,NA,6,Explosives/Bombs/Dynamite,An Improvised Explosive Device consisting of three canisters of ammonium nitrate-fuel oil and one pipe bomb connected to a timing mechanism and buried at the bottom of the utility pole.,0,0,0,0,0,0,0,,,,,0,
1988,9,19,United States,California,Los Angeles,34.03596,-118.445058,11500 West Olympic Blvd.,1,0,3,Bombing/Explosion,2,Government (General),21,Government Building/Facility/Office,Building housing Internal Revenue Service offices,"Internal Revenue Service offices, Los Angeles California",217,United States,"Up the IRS, Inc",Anti-Government,NA,2,Chemical,"Six pipe bombs placed in the car.   Also, gasoline cans and bottles filled with ammonia and bleach placed in the trunk that, if ignited, would release a toxic cloud.  There was also a water heater filled with a mixture of ammonium nitrate and fuel oil placed in the car.  Additionally, the car was booby-trapped to detonate if it was moved.",0,0,0,0,0,0,1,3,Minor (likely < $1 million),,Car was damaged,0,
1989,3,20,United States,California,Los Angeles,34.05349,-118.245319,Tennessee Ave.,1,0,3,Bombing/Explosion,2,Government (General),21,Government Building/Facility/Office,Utility pole that provided electricity to an office of the Internal Revenue Service,"Internal Revenue Service offices, Los Angeles California",217,United States,"Up the IRS, Inc",Anti-Government,NA,6,Explosives/Bombs/Dynamite,Three Improvised Explosive Devices connected to a timing mechanism,0,0,0,0,0,0,1,3,Minor (likely < $1 million),,Minor structural damages to three utility poles,0,
1989,8,21,United States,Georgia,Atlanta,33.748315,-84.391109,,1,0,3,Bombing/Explosion,12,NGO,61,Domestic NGO,National Association for the Advancement of Colored People (NAACP),"NAACP Southeastern regional headquarters office in Atlanta, Georgia",217,United States,Americans for a Competent Federal Judicial System,Anti-Government,NA,6,Explosives/Bombs/Dynamite,"packaged gas bomb containing a substance similar to tear gas, that emitted a white-yellow smoke and caused burning eyes and throats",0,0,0,8,8,0,0,,,,,,
1989,12,16,United States,Alabama,Mountain Brook,33.502115,-86.755509,,1,0,3,Bombing/Explosion,2,Government (General),14,Judge/Attorney/Court,Judge on the 11th Circuit Court of Appeals,Robert Smith Vance,217,United States,Americans for a Competent Federal Judicial System,Anti-Government,NA,6,Explosives/Bombs/Dynamite,Pipe bomb placed in a small brown package triggered to detonate when opened,1,1,0,1,1,0,1,3,Minor (likely < $1 million),,,0,
1989,12,18,United States,Florida,Jacksonville,30.33138,-81.655799,,0,0,3,Bombing/Explosion,14,Private Citizens & Property,82,Labor Union Related,NAACP,Headquarters,217,United States,Americans for a Competent Federal Judicial System,Anti-Government,NA,6,Explosives/Bombs/Dynamite,Package bomb,,,0,,,0,1,,,,,0,
1989,12,18,United States,Georgia,Savannah,32.08078,-81.090719,,1,0,1,Assassination,1,Business,,,Lawyer and Savannah Alderman,Robert Robinson,217,United States,Americans for a Competent Federal Judicial System,Anti-Government,NA,6,Explosives/Bombs/Dynamite,Package bomb,1,1,,0,0,,0,,,,,0,
1989,12,18,United States,Georgia,Atlanta,33.748315,-84.391109,,0,0,3,Bombing/Explosion,2,Government (General),14,Judge/Attorney/Court,Govt,11th Circuit Court,217,United States,Americans for a Competent Federal Judicial System,Anti-Government,NA,6,Explosives/Bombs/Dynamite,Package bomb,0,,,0,,,1,,,,,0,
1990,2,22,United States,California,Los Angeles,34.05349,-118.245319,,1,0,3,Bombing/Explosion,2,Government (General),21,Government Building/Facility/Office,U.S. Government,Internal Revenue Service,217,United States,"Up the IRS, Inc",Anti-Government,NA,6,Explosives/Bombs/Dynamite,Truck bomb with explosive chemicals,0,0,0,0,0,0,1,,,,,0,
1991,3,31,United States,California,Fresno,36.73048,-119.724526,South Willow Ave.,1,0,3,Bombing/Explosion,2,Government (General),21,Government Building/Facility/Office,National Treasury Employees Labor Union,"National Treasury Employees Labor Union Building, Fresno California",217,United States,"Up the IRS, Inc",Anti-Government,NA,6,Explosives/Bombs/Dynamite,Pipe bomb connected to a timing device,0,0,0,0,0,0,1,3,Minor (likely < $1 million),,"The labor union building was damaged, windows were shattered at a nearby apartment, and a natural gas line was ruptured causing a small fire.",0,
1991,4,1,United States,California,Fresno,36.740685,-119.785734,,1,0,3,Bombing/Explosion,2,Government (General),21,Government Building/Facility/Office,U.S. Internal Revenue Service,I.R.S. Offices in Fresno CA,217,United States,"Up the IRS, Inc",Anti-Government,NA,6,Explosives/Bombs/Dynamite,Pipe bombs (9),,,,,,,1,,,,,0,
1992,4,15,United States,California,Hayward,37.675211,-122.079314,1260 B Street,1,0,2,Armed Assault,2,Government (General),15,Politician or Political Party Movement/Meeting/Rally,Internal Revenue Service,Internal Revenue Service office in Hayward California,217,United States,Anti-Government Group,Anti-Government,NA,5,Firearms,Shotgun,0,0,0,0,0,0,1,3,Minor (likely < $1 million),1000,Window shattered and shotgun pellets scattered throughout the office,0,
1995,3,28,United States,Nevada,Lamoille,40.729069,-115.47876,Humboldt National Forest,1,0,3,Bombing/Explosion,2,Government (General),21,Government Building/Facility/Office,National Forest facilities,Outhouse on a Humboldt National Forest campground,217,United States,Anti-Government Group,Anti-Government,NA,6,Explosives/Bombs/Dynamite,Pipe bomb,0,0,0,0,0,0,1,3,Minor (likely < $1 million),,Outhouse damaged,0,
1995,4,19,United States,Oklahoma,Oklahoma City,35.472015,-97.520354,,1,0,3,Bombing/Explosion,2,Government (General),21,Government Building/Facility/Office,,Alfred P. Murrah Federal Building,217,United States,Anti-Government extremists,Anti-Government,NA,6,Explosives/Bombs/Dynamite,Explosive,168,168,0,650,650,0,1,2,Major (likely > $1 million but < $1 billion),652000000,"Damages: More than 300 buildings destroyed or damaged, 86 cars burned and glass shattered for several miles.",0,
1996,4,12,United States,California,Vacaville,38.351355,-121.993429,Interstate 80,1,0,3,Bombing/Explosion,2,Government (General),18,"Government Personnel (excluding police, military)",Federal employee,Truck of a mine inspector working for the United States department of Labor,217,United States,Anti-Government Group,Anti-Government,NA,6,Explosives/Bombs/Dynamite,Pipe bomb,0,0,0,2,2,0,1,3,Minor (likely < $1 million),,Vehicle engulfed with flames,0,
1997,5,3,United States,Colorado,Colorado Springs,38.85978,-104.757328,2020 North Academy Blvd.,1,0,7,Facility/Infrastructure Attack,2,Government (General),21,Government Building/Facility/Office,Internal Revenue Service,"Internal Revenue Service Office, Colorado Springs",217,United States,Anti-Government Group,Anti-Government,NA,8,Incendiary,Gasoline ignited by a timing device,0,0,0,1,1,0,1,2,Major (likely > $1 million but < $1 billion),2500000,Building gutted,0,
1999,4,10,United States,Colorado,Colorado Springs,38.793235,-104.803412,1259 Lake Plaza Drive,1,0,7,Facility/Infrastructure Attack,2,Government (General),21,Government Building/Facility/Office,Internal Revenue Service,"Internal Revenue Service Office, Colorado Springs",217,United States,Anti-Government Group,Anti-Government,NA,8,Incendiary,Accelerant made out of oil or gasoline,0,0,0,1,1,0,1,3,Minor (likely < $1 million),,Building sustained heavy damage,0,
2002,5,3,United States,Indiana,Bloomington,39.16659,-86.534244,,1,0,3,Bombing/Explosion,14,Private Citizens & Property,67,Unnamed Civilian/Unspecified,Civilians,Civilians in the United States Midwest,217,United States,Anti-Government extremists,Anti-Government,NA,6,Explosives/Bombs/Dynamite,The pipe bombs were assembled with steel pipes and attached to nine-volt batteries and most were accompanied by antigovernment notes. They were rigged to explode when the mailbox was opened. Only six of the seven devices rigged in this manner detonated.,0,0,0,1,1,0,1,3,Minor (likely < $1 million),,Mailboxes were damaged in the attacks.,,
2002,5,3,United States,Iowa,Eldridge,41.658086,-90.584582,,1,0,3,Bombing/Explosion,14,Private Citizens & Property,67,Unnamed Civilian/Unspecified,Civilians,Civilians in the United States Midwest,217,United States,Anti-Government extremists,Anti-Government,NA,6,Explosives/Bombs/Dynamite,The pipe bombs were assembled with steel pipes and attached to nine-volt batteries and most were accompanied by antigovernment notes. They were rigged to explode when the mailbox was opened. Only six of the seven devices rigged in this manner detonated.,0,0,0,1,1,0,1,3,Minor (likely < $1 million),,Mailboxes were damaged in the attacks.,,
2002,5,3,United States,Illinois,Morrison,41.809751,-89.965119,,1,0,3,Bombing/Explosion,14,Private Citizens & Property,67,Unnamed Civilian/Unspecified,Civilians,Civilians in the United States Midwest,217,United States,Anti-Government extremists,Anti-Government,NA,6,Explosives/Bombs/Dynamite,The pipe bombs were assembled with steel pipes and attached to nine-volt batteries and most were accompanied by antigovernment notes. They were rigged to explode when the mailbox was opened. Only six of the seven devices rigged in this manner detonated.,0,0,0,1,1,0,1,3,Minor (likely < $1 million),,Mailboxes were damaged in the attacks.,,
2002,5,3,United States,Illinois,Mount Carroll,42.095023,-89.97818,,1,0,3,Bombing/Explosion,14,Private Citizens & Property,67,Unnamed Civilian/Unspecified,Civilians,Civilians in the United States Midwest,217,United States,Anti-Government extremists,Anti-Government,NA,6,Explosives/Bombs/Dynamite,The pipe bombs were assembled with steel pipes and attached to nine-volt batteries and most were accompanied by antigovernment notes. They were rigged to explode when the mailbox was opened. Only six of the seven devices rigged in this manner detonated.,0,0,0,1,1,0,1,3,Minor (likely < $1 million),,Mailboxes were damaged in the attacks.,,
2002,5,3,United States,Iowa,Anamosa,42.108337,-91.285159,,1,0,3,Bombing/Explosion,14,Private Citizens & Property,67,Unnamed Civilian/Unspecified,Civilians,Civilians in the United States Midwest,217,United States,Anti-Government extremists,Anti-Government,NA,6,Explosives/Bombs/Dynamite,The pipe bombs were assembled with steel pipes and attached to nine-volt batteries and most were accompanied by antigovernment notes. They were rigged to explode when the mailbox was opened. Only six of the seven devices rigged in this manner detonated.,0,0,0,1,1,0,1,3,Minor (likely < $1 million),,Mailboxes were damaged in the attacks.,,
2002,5,3,United States,Illinois,Elizabeth,42.317791,-90.221517,,1,0,3,Bombing/Explosion,14,Private Citizens & Property,67,Unnamed Civilian/Unspecified,Civilians,Civilians in the United States Midwest,217,United States,Anti-Government extremists,Anti-Government,NA,6,Explosives/Bombs/Dynamite,The pipe bombs were assembled with steel pipes and attached to nine-volt batteries and most were accompanied by antigovernment notes. They were rigged to explode when the mailbox was opened. Only six of the seven devices rigged in this manner detonated.,0,0,0,0,0,0,1,3,Minor (likely < $1 million),,Mailboxes were damaged in the attacks.,,
2002,5,3,United States,Iowa,Farley,42.443889,-91.009444,,1,0,3,Bombing/Explosion,14,Private Citizens & Property,67,Unnamed Civilian/Unspecified,Civilians,Civilians in the United States Midwest,217,United States,Anti-Government extremists,Anti-Government,NA,6,Explosives/Bombs/Dynamite,The pipe bombs were assembled with steel pipes and attached to nine-volt batteries and most were accompanied by antigovernment notes. They were rigged to explode when the mailbox was opened. Only six of the seven devices rigged in this manner detonated.,0,0,0,1,1,0,1,3,Minor (likely < $1 million),,Mailboxes were damaged in the attacks.,,
2002,5,3,United States,Iowa,Asbury,42.514446,-90.751516,,1,0,3,Bombing/Explosion,14,Private Citizens & Property,67,Unnamed Civilian/Unspecified,Civilians,Civilians in the United States Midwest,217,United States,Anti-Government extremists,Anti-Government,NA,6,Explosives/Bombs/Dynamite,The pipe bombs were assembled with steel pipes and attached to nine-volt batteries and most were accompanied by antigovernment notes. They were rigged to explode when the mailbox was opened. Only six of the seven devices rigged in this manner detonated.,0,0,0,1,1,0,1,3,Minor (likely < $1 million),,Mailboxes were damaged in the attacks.,,
2002,5,4,United States,Nebraska,Davenport,40.312784,-97.811986,,0,0,3,Bombing/Explosion,14,Private Citizens & Property,67,Unnamed Civilian/Unspecified,Civilians,Civilians in the United States Midwest,217,United States,Anti-Government extremists,Anti-Government,NA,6,Explosives/Bombs/Dynamite,"The pipe bombs were assembled with steel pipes and attached to nine-volt batteries and most were accompanied by antigovernment notes. Unlike the first set, this bomb was not rigged to the mailbox and did not detonate.",0,0,0,0,0,0,0,,,,,,
2002,5,4,United States,Nebraska,Ohiowa,40.414167,-97.452222,,0,0,3,Bombing/Explosion,14,Private Citizens & Property,67,Unnamed Civilian/Unspecified,Civilians,Civilians in the United States Midwest,217,United States,Anti-Government extremists,Anti-Government,NA,6,Explosives/Bombs/Dynamite,"The pipe bombs were assembled with steel pipes and attached to nine-volt batteries and most were accompanied by antigovernment notes. Unlike the first set, this bomb was not rigged to the mailbox and did not detonate.",0,0,0,0,0,0,0,,,,,,
2002,5,4,United States,Nebraska,Seward,40.911111,-97.096944,,0,0,3,Bombing/Explosion,14,Private Citizens & Property,67,Unnamed Civilian/Unspecified,Civilians,Civilians in the United States Midwest,217,United States,Anti-Government extremists,Anti-Government,NA,6,Explosives/Bombs/Dynamite,"The pipe bombs were assembled with steel pipes and attached to nine-volt batteries and most were accompanied by antigovernment notes. Unlike the first set, this bomb was not rigged to the mailbox and did not detonate.",0,0,0,0,0,0,0,,,,,,
2002,5,4,United States,Nebraska,Cairo,41.002235,-98.606738,,0,0,3,Bombing/Explosion,14,Private Citizens & Property,67,Unnamed Civilian/Unspecified,Civilians,Civilians in the United States Midwest,217,United States,Anti-Government extremists,Anti-Government,NA,6,Explosives/Bombs/Dynamite,"The pipe bombs were assembled with steel pipes and attached to nine-volt batteries and most were accompanied by antigovernment notes. Unlike the first set, this bomb was not rigged to the mailbox and did not detonate.",0,0,0,0,0,0,0,,,,,,
2002,5,4,United States,Nebraska,Columbus,41.432778,-97.358611,,0,0,3,Bombing/Explosion,14,Private Citizens & Property,67,Unnamed Civilian/Unspecified,Civilians,Civilians in the United States Midwest,217,United States,Anti-Government extremists,Anti-Government,NA,6,Explosives/Bombs/Dynamite,"The pipe bombs were assembled with steel pipes and attached to nine-volt batteries and most were accompanied by antigovernment notes. Unlike the first set, this bomb was not rigged to the mailbox and did not detonate.",0,0,0,0,0,0,0,,,,,,
2002,5,4,United States,Nebraska,Scotia,41.466401,-98.703134,,0,0,3,Bombing/Explosion,14,Private Citizens & Property,67,Unnamed Civilian/Unspecified,Civilians,Civilians in the United States Midwest,217,United States,Anti-Government extremists,Anti-Government,NA,6,Explosives/Bombs/Dynamite,"The pipe bombs were assembled with steel pipes and attached to nine-volt batteries and most were accompanied by antigovernment notes. Unlike the first set, this bomb was not rigged to the mailbox and did not detonate.",0,0,0,0,0,0,0,,,,,,
2002,5,4,United States,Nebraska,Albion,41.689444,-98.003056,,0,0,3,Bombing/Explosion,14,Private Citizens & Property,67,Unnamed Civilian/Unspecified,Civilians,Civilians in the United States Midwest,217,United States,Anti-Government extremists,Anti-Government,NA,6,Explosives/Bombs/Dynamite,"The pipe bombs were assembled with steel pipes and attached to nine-volt batteries and most were accompanied by antigovernment notes. Unlike the first set, this bomb was not rigged to the mailbox and did not detonate.",0,0,0,0,0,0,0,,,,,,
2002,5,6,United States,Colorado,Pueblo,38.26386,-104.612374,,0,0,3,Bombing/Explosion,14,Private Citizens & Property,67,Unnamed Civilian/Unspecified,Civilians,Civilians in the United States Midwest,217,United States,Anti-Government extremists,Anti-Government,NA,6,Explosives/Bombs/Dynamite,"The pipe bombs were assembled with steel pipes and attached to nine-volt batteries and most were accompanied by antigovernment notes. Unlike the first set, this bomb was not rigged to the mailbox and did not detonate.",0,0,0,0,0,0,0,,,,,,
2002,5,6,United States,Colorado,Salida,38.534719,-105.998902,,0,0,3,Bombing/Explosion,14,Private Citizens & Property,67,Unnamed Civilian/Unspecified,Civilians,Civilians in the United States Midwest,217,United States,Anti-Government extremists,Anti-Government,NA,6,Explosives/Bombs/Dynamite,"The pipe bombs were assembled with steel pipes and attached to nine-volt batteries and most were accompanied by antigovernment notes. Unlike the first set, this bomb was not rigged to the mailbox and did not detonate.",0,0,0,0,0,0,0,,,,,,
2002,5,7,United States,Texas,Amarillo,35.207255,-101.833894,,0,0,3,Bombing/Explosion,14,Private Citizens & Property,67,Unnamed Civilian/Unspecified,Civilians,Civilians in the United States Midwest,217,United States,Anti-Government extremists,Anti-Government,NA,6,Explosives/Bombs/Dynamite,"The pipe bombs were assembled with steel pipes and attached to nine-volt batteries and most were accompanied by antigovernment notes. Unlike the first set, this bomb was not rigged to the mailbox and did not detonate.",0,0,0,0,0,0,0,,,,,,
2010,2,18,United States,Texas,Austin,30.267605,-97.742984,,1,1,7,Facility/Infrastructure Attack,2,Government (General),21,Government Building/Facility/Office,Internal Revenue Service,The target was the Internal Revenue Service building.,217,United States,Anti-Government extremists,Anti-Government,NA,10,"Vehicle (not to include vehicle-borne explosives, i.e., car or truck bombs)",A private plane was used as a missile in the attack.,2,2,1,15,15,0,1,2,Major (likely > $1 million but < $1 billion),,The attack severely damaged the building.,,
2010,3,4,United States,Virginia,Arlington,38.871857,-77.056267,At the entrance gates to the Pentagon,1,0,2,Armed Assault,2,Government (General),21,Government Building/Facility/Office,United States Government,Pentagon Building,217,United States,Anti-Government extremists,Anti-Government,NA,5,Firearms,,1,1,1,2,0,0,0,,,,,,
2011,11,11,United States,District of Columbia,Washington,38.89037,-77.031959,"Near Constitution Avenue and 16th Street, approximately a block away from the White House",0,0,2,Armed Assault,2,Government (General),21,Government Building/Facility/Office,US Government,The White House,217,United States,Anti-Government extremists,Anti-Government,NA,5,Firearms,An assault rifle,0,0,0,0,0,0,1,3,Minor (likely < $1 million),100000,The White House was struck by eight bullets.,,
2013,2,7,United States,California,Corona,33.875294,-117.566438,The incident occurred in Riverside County.,1,0,2,Armed Assault,3,Police,25,Police Security Forces/Officers,Riverside Police,Officers,217,United States,Anti-Police extremists,Anti-Government,NA,5,Firearms,A rifle was used in the attack.,1,1,0,1,1,0,0,,,,,,
2013,2,25,United States,Washington,Seattle,47.5932,-122.300567,The incident occurred in Judkins Park neighborhood,1,0,7,Facility/Infrastructure Attack,1,Business,12,Construction,Benjamin Custom Homes,Construction Site,217,United States,Anarchists,Anti-Government,NA,8,Incendiary,,0,0,0,0,0,0,1,3,Minor (likely < $1 million),60000,A single family home and construction equipment were damaged in this attack.,,
2013,11,1,United States,California,Los Angeles,33.941589,-118.40853,,1,0,2,Armed Assault,6,Airports & Aircraft,44,Airport,Los Angeles International Airport (LAX),Terminal 3,217,United States,Anti-Government extremists,Anti-Government,NA,5,Firearms,A .223 caliber assault rifle and a handgun were used in the attack.,1,1,0,4,4,1,-9,,,,It is unknown if any property was damaged in this attack.,,
2014,5,5,United States,West Virginia,Weirton,40.40803,-80.588972,,0,0,3,Bombing/Explosion,2,Government (General),21,Government Building/Facility/Office,Government of Weirton,Municipal Building,217,United States,Anti-Government extremists,Anti-Government,NA,2,Chemical,Three explosive bottles constructed out of soda bottles and cleaning chemicals were used in the attack.,0,0,0,0,0,0,0,,,,,,
2014,6,8,United States,Nevada,Las Vegas,36.164808,-115.062863,,1,0,2,Armed Assault,3,Police,25,Police Security Forces/Officers,Las Vegas Metropolitan Police,"Officers: Alyn Beck, Igor Solo",217,United States,Anti-Government extremists,Anti-Government,NA,5,Firearms,,5,5,2,0,0,0,1,3,Minor (likely < $1 million),-99,Weapons and ammunition were stolen in this attack.,,
2014,9,11,United States,Missouri,Kansas City,39.10296,-94.583062,,1,0,7,Facility/Infrastructure Attack,2,Government (General),15,Politician or Political Party Movement/Meeting/Rally,United States House of Representatives,Office of Representative: Emanuel Cleaver,217,United States,Anarchists,Anti-Government,NA,8,Incendiary,Molotov cocktails were used in the attack.,0,0,0,0,0,0,1,3,Minor (likely < $1 million),-99,An office window was damaged in this attack.,,
2014,9,12,United States,Pennsylvania,Blooming Grove,41.370121,-75.154073,,1,0,2,Armed Assault,3,Police,22,"Police Building (headquarters, station, school)",Pennsylvania State Police (PSP),Blooming Grove Barracks,217,United States,Anti-Government extremists,Anti-Government,NA,5,Firearms,A sniper rifle was used in the attack.,1,1,0,1,1,0,0,,,,,,
2014,11,28,United States,Texas,Austin,30.26744,-97.734942,,1,0,2,Armed Assault,3,Police,22,"Police Building (headquarters, station, school)",Austin Police Department,Headquarters,217,United States,Anti-Government extremists,Anti-Government,NA,5,Firearms,,1,1,1,0,0,0,-9,,,,It is unknown if any property was damaged in this attack.,,
2014,11,28,United States,Texas,Austin,30.268138,-97.748446,,1,0,2,Armed Assault,2,Government (General),14,Judge/Attorney/Court,Government of Texas,Austin Federal Courthouse,217,United States,Anti-Government extremists,Anti-Government,NA,5,Firearms,,0,0,0,0,0,0,-9,,,,It is unknown if any property was damaged in this attack.,,
2014,11,28,United States,Texas,Austin,30.270538,-97.756425,The incident occurred at the Mexican Consulate.,1,0,2,Armed Assault,7,Government (Diplomatic),46,Embassy/Consulate,Mexican Secretariat of Foreign Affairs,Consulate,130,Mexico,Anti-Government extremists,Anti-Government,NA,5,Firearms,,0,0,0,0,0,0,-9,,,,It is unknown if any property was damaged in this attack.,,
2014,12,20,United States,New York,New York City,40.678178,-73.941773,The incident occurred in the Bedford-Stuyvesant neighborhood of the Brooklyn borough in the city.,1,0,2,Armed Assault,3,Police,25,Police Security Forces/Officers,New York City Police Department,"Officers: Wenjian Liu, Rafael Romos",217,United States,Anti-Police extremists,Anti-Government,NA,5,Firearms,A Taurus semiautomatic handgun was used in the attack.,2,2,0,0,0,0,1,3,Minor (likely < $1 million),-99,A police vehicle was damaged in this attack.,,
2015,2,23,United States,Ohio,Kent,41.151766,-81.348654,,1,0,7,Facility/Infrastructure Attack,4,Military,35,Military Transportation/Vehicle (excluding convoys),Reserve Officers' Training Corps (ROTC),Vans,217,United States,Anarchists,Anti-Government,NA,8,Incendiary,,0,0,0,0,0,0,1,3,Minor (likely < $1 million),-99,Two ROTC passenger vans were damaged in this attack.,,
2015,7,23,United States,Louisiana,Lafayette,30.201966,-92.045686,The incident occurred on Johnston Street.,1,0,2,Armed Assault,1,Business,11,Entertainment/Cultural/Stadium/Casino,Grand Theatre,Movie Theatre,217,United States,Anti-Government extremists,Anti-Government,NA,5,Firearms,A .40-caliber handgun was used in the attack.,3,3,1,9,9,0,0,,,,,,
2016,7,7,United States,Tennessee,Bristol,36.58886,-82.185961,,1,0,2,Armed Assault,3,Police,25,Police Security Forces/Officers,Tennessee State Police,Officers,217,United States,Anti-Police extremists,Anti-Government,NA,5,Firearms,An AR-15 and a .45-caliber pistol were used in the attack.,1,1,0,4,4,1,1,3,Minor (likely < $1 million),-99,Vehicles were damaged in this attack.,,
2016,7,17,United States,Florida,Daytona Beach,29.200533,-81.034508,,1,0,7,Facility/Infrastructure Attack,3,Police,23,Police Patrol (including vehicles and convoys),Daytona Beach Police Department (DBPD),Vehicle,217,United States,Anti-Police extremists,Anti-Government,NA,8,Incendiary,A Molotov cocktail was used in the attack.,0,0,0,0,0,0,1,3,Minor (likely < $1 million),-99,A police vehicle was damaged in this attack.,,
2016,7,17,United States,Louisiana,Baton Rouge,30.433483,-91.080857,,1,0,2,Armed Assault,3,Police,25,Police Security Forces/Officers,Baton Rouge City Police,Officers,217,United States,Anti-Police extremists,Anti-Government,NA,5,Firearms,A IWA Tavor SAR 5.56-caliber rifle and Springfield XD 9.9-mm pistol were used in the attack.,4,4,1,3,3,0,0,,,,,,
2016,9,16,United States,Pennsylvania,Philadelphia,39.957495,-75.222965,,1,0,2,Armed Assault,3,Police,25,Police Security Forces/Officers,Philadelphia City Police,Officer: Sergeant Sylvia Young,217,United States,Anti-Police extremists,Anti-Government,NA,5,Firearms,A 9-mm Ruger semiautomatic handgun was used in the attack.,2,2,1,5,5,0,1,3,Minor (likely < $1 million),-99,A bar and a police car were damaged in this attack.,,
1970,1,31,United States,Colorado,Denver,39.748783,-105.022136,2105 Decatur Street,1,0,3,Bombing/Explosion,3,Police,22,"Police Building (headquarters, station, school)",Denver Police Department,"Police Band Building, Denver Colorado",217,United States,Unknown,Anti-Government,NA,6,Explosives/Bombs/Dynamite,Suspected use of dynamite,0,0,0,0,0,0,1,3,Minor (likely < $1 million),,Restroom damaged,0,
1970,2,13,United States,California,Berkeley,37.869885,-122.270539,,1,0,3,Bombing/Explosion,3,Police,22,"Police Building (headquarters, station, school)",Berkeley Police Department,Police parking lot,217,United States,Unknown,Anti-Government,NA,6,Explosives/Bombs/Dynamite,Explosive,0,,,7,,,1,3,Minor (likely < $1 million),8000,,0,
1970,2,16,United States,California,San Francisco,37.777125,-122.419644,,1,0,3,Bombing/Explosion,3,Police,22,"Police Building (headquarters, station, school)",San Francisco Police Department,police station,217,United States,Unknown,Anti-Government,NA,6,Explosives/Bombs/Dynamite,Explosive,1,,,0,,,1,3,Minor (likely < $1 million),3000,,0,
1970,3,15,United States,Montana,Billings,45.783975,-108.505794,Backseat,1,0,3,Bombing/Explosion,3,Police,23,Police Patrol (including vehicles and convoys),Billings Police,Billings Police car,217,United States,Unknown,Anti-Government,NA,6,Explosives/Bombs/Dynamite,Car bomb,0,0,0,0,0,0,1,3,Minor (likely < $1 million),,Vehicle was demolished,0,
1970,4,13,United States,Missouri,Kansas City,39.10296,-94.583062,,1,0,3,Bombing/Explosion,3,Police,22,"Police Building (headquarters, station, school)",Kansas City Police Department,Kansas City Police Academy,217,United States,Unknown,Anti-Government,NA,6,Explosives/Bombs/Dynamite,,0,0,0,0,0,0,1,3,Minor (likely < $1 million),,Windows of Police Academy and surrounding buildings shattered,0,
1970,11,1,United States,California,Fresno,36.740685,-119.785734,,1,0,3,Bombing/Explosion,4,Military,27,Military Barracks/Base/Headquarters/Checkpost,,Army Induction Center,217,United States,Unknown,Anti-Government,NA,6,Explosives/Bombs/Dynamite,Explosive,0,,,0,,,1,3,Minor (likely < $1 million),20000,,0,
1971,2,5,United States,California,Santa Barbara,34.419255,-119.698869,,1,0,7,Facility/Infrastructure Attack,4,Military,28,Military Recruiting Station/Academy,University of Santa Barbara,ROTC Building,217,United States,Unknown,Anti-Government,NA,8,Incendiary,Incendiary,0,,,0,,,1,,,,,0,
1971,2,12,United States,California,Santa Cruz,36.974025,-122.030954,,1,0,7,Facility/Infrastructure Attack,4,Military,28,Military Recruiting Station/Academy,,Military Recruiting Center,217,United States,Unknown,Anti-Government,NA,8,Incendiary,Incendiary,0,,,0,,,1,,,,,0,
1971,3,8,United States,Missouri,St. Louis,38.62774,-90.199514,,1,0,3,Bombing/Explosion,2,Government (General),21,Government Building/Facility/Office,,Federal Records Center,217,United States,Unknown,Anti-Government,NA,6,Explosives/Bombs/Dynamite,Explosive,0,,,0,,,1,,,,,0,
1971,3,8,United States,Missouri,St. Louis,38.62774,-90.199514,,1,0,3,Bombing/Explosion,4,Military,28,Military Recruiting Station/Academy,,ROTC Building,217,United States,Unknown,Anti-Government,NA,6,Explosives/Bombs/Dynamite,Explosive,0,0,,10,10,,1,,,,,0,
1971,3,9,United States,Colorado,Fort Lupton,40.079609,-104.812912,,1,0,3,Bombing/Explosion,3,Police,22,"Police Building (headquarters, station, school)",,Police HQ,217,United States,Unknown,Anti-Government,NA,6,Explosives/Bombs/Dynamite,Explosive,0,,,0,,,1,,,,,0,
1971,4,1,United States,California,Los Angeles,34.05349,-118.245319,,1,0,3,Bombing/Explosion,2,Government (General),21,Government Building/Facility/Office,,City Hall,217,United States,Unknown,Anti-Government,NA,6,Explosives/Bombs/Dynamite,Explosive,,,,,,,1,,,,,0,
1971,6,21,United States,California,San Jose,37.338475,-121.885794,On chair in front of room,0,0,3,Bombing/Explosion,2,Government (General),21,Government Building/Facility/Office,San Jose City Council,"City Council Building, San Jose California",217,United States,Unknown,Anti-Government,NA,6,Explosives/Bombs/Dynamite,Three inch pipe bomb with timing device,0,0,0,0,0,0,0,,,,,0,
1971,7,4,United States,California,San Jose,37.338475,-121.885794,,1,0,3,Bombing/Explosion,2,Government (General),21,Government Building/Facility/Office,,Federal Office Building,217,United States,Unknown,Anti-Government,NA,6,Explosives/Bombs/Dynamite,Explosive,0,,,0,,,1,3,Minor (likely < $1 million),500000,,0,
1971,8,24,United States,Indiana,Hammond,41.583193,-87.499736,,1,0,7,Facility/Infrastructure Attack,2,Government (General),21,Government Building/Facility/Office,,Federal Office Building,217,United States,Unknown,Anti-Government,NA,8,Incendiary,Incendiary,0,,,0,,,1,,,,,0,
1972,5,9,United States,California,San Jose,37.338475,-121.885794,,1,0,7,Facility/Infrastructure Attack,4,Military,27,Military Barracks/Base/Headquarters/Checkpost,,Naval Reserve Armory Army Vet. Center,217,United States,Unknown,Anti-Government,NA,8,Incendiary,Incendiary,0,,,0,,,1,3,Minor (likely < $1 million),200000,,0,
1973,1,18,United States,Colorado,Pueblo,38.26386,-104.612374,Police community relations center,1,0,7,Facility/Infrastructure Attack,3,Police,22,"Police Building (headquarters, station, school)",Colorado Police,police community relations center,217,United States,Unknown,Anti-Government,NA,8,Incendiary,molotov cocktails,0,0,0,0,0,0,-9,,,,,,
1973,1,22,United States,Illinois,Alton,38.89086,-90.183834,,1,0,7,Facility/Infrastructure Attack,3,Police,22,"Police Building (headquarters, station, school)",Illinois Police,police station,217,United States,Unknown,Anti-Government,NA,8,Incendiary,molotov cocktail,0,0,0,0,0,0,-9,,,,,,
1973,11,1,United States,Puerto Rico,San Juan,18.46617,-66.106654,,1,0,7,Facility/Infrastructure Attack,3,Police,22,"Police Building (headquarters, station, school)",,FBI Office,217,United States,Unknown,Anti-Government,NA,8,Incendiary,Incendiary,0,,,0,,,1,,,,,0,
1973,11,4,United States,Wisconsin,Madison,43.07295,-89.386694,Near entrance to Police Headquarters,1,0,3,Bombing/Explosion,3,Police,23,Police Patrol (including vehicles and convoys),Wisconsin Police,police car,217,United States,Unknown,Anti-Government,NA,8,Incendiary,,0,0,0,0,0,0,-9,,,,,,
1974,2,3,United States,Maryland,Laurel,39.099169,-76.848461,Beneath police vehicle,0,0,3,Bombing/Explosion,3,Police,23,Police Patrol (including vehicles and convoys),Maryland Police,police vehicle,217,United States,Unknown,Anti-Government,NA,6,Explosives/Bombs/Dynamite,,0,0,0,0,0,0,0,,,,,,
1974,3,7,United States,Oregon,Portland,45.511795,-122.675629,,1,0,3,Bombing/Explosion,2,Government (General),21,Government Building/Facility/Office,Oregon State Office Building,state office building,217,United States,Unknown,Anti-Government,NA,6,Explosives/Bombs/Dynamite,,0,0,0,0,0,0,-9,,,,,,
1974,3,21,United States,Pennsylvania,Folcroft,39.891141,-75.283596,,1,0,3,Bombing/Explosion,3,Police,22,"Police Building (headquarters, station, school)",Pennsylvania Police,police department,217,United States,Unknown,Anti-Government,NA,6,Explosives/Bombs/Dynamite,,0,0,0,0,0,0,1,3,Minor (likely < $1 million),5000,,,
1974,4,24,United States,Maryland,Perryville,39.560113,-76.071338,police vehicle,1,0,3,Bombing/Explosion,3,Police,23,Police Patrol (including vehicles and convoys),Maryland Police,police vehicle,217,United States,Unknown,Anti-Government,NA,6,Explosives/Bombs/Dynamite,military firecracker,0,0,0,0,0,0,1,3,Minor (likely < $1 million),,,,
1974,5,20,United States,California,Yuba City,39.14076,-121.619399,under unoccupied police vehicle,1,0,3,Bombing/Explosion,3,Police,23,Police Patrol (including vehicles and convoys),California Police,police vehicle,217,United States,Unknown,Anti-Government,NA,6,Explosives/Bombs/Dynamite,,,,,,,,1,3,Minor (likely < $1 million),-99,extensive damage to vehicle,,
1974,5,21,United States,California,Yuba City,39.14076,-121.619399,through window of State motor vehicle office,1,0,7,Facility/Infrastructure Attack,2,Government (General),21,Government Building/Facility/Office,California State motor vehicle offices,state motor vehicle office,217,United States,Unknown,Anti-Government,NA,8,Incendiary,molotov cocktail,,,,,,,1,3,Minor (likely < $1 million),-99,extensive damage to office,,
1974,5,31,United States,Illinois,Chicago,41.88415,-87.632409,second floor restroom,1,0,3,Bombing/Explosion,3,Police,22,"Police Building (headquarters, station, school)",Illinois Police,Chicago police department,217,United States,Unknown,Anti-Government,NA,6,Explosives/Bombs/Dynamite,pipebomb,,,,,,,-9,,,,,,
1975,1,4,United States,Ohio,Columbus,39.96196,-83.002984,,1,0,3,Bombing/Explosion,3,Police,22,"Police Building (headquarters, station, school)",Ohio Police,Ohio Police department in Columbus,217,United States,Unknown,Anti-Government,NA,6,Explosives/Bombs/Dynamite,,,,0,,,,1,3,Minor (likely < $1 million),2500,,,
1975,8,8,United States,Colorado,Denver,39.74001,-104.992259,Side entrance of building,1,0,3,Bombing/Explosion,2,Government (General),14,Judge/Attorney/Court,United States Courthouse,Denver Westside Courthouse,217,United States,Unknown,Anti-Government,NA,6,Explosives/Bombs/Dynamite,thirty sticks of dynamite,0,0,0,0,0,0,1,3,Minor (likely < $1 million),-99,"Two foot hole blown into building, door destroyed, and windows shattered.",0,
1976,1,28,United States,Arizona,Phoenix,33.44826,-112.075774,,0,0,3,Bombing/Explosion,2,Government (General),21,Government Building/Facility/Office,,U.S. Public Health Service Building,217,United States,Unknown,Anti-Government,NA,6,Explosives/Bombs/Dynamite,Explosive,0,,,0,,,1,,,,,0,
1976,12,6,United States,District of Columbia,Washington,38.887577,-77.015237,"1 at mailroom of the North Building of Department of Health, Education, and Welfare; 300 Independence Ave SW, Washington, DC",0,0,3,Bombing/Explosion,2,Government (General),17,Head of State,President-elect Carter,Headquarters of President-elect Carter and his transition team,217,United States,Unknown,Anti-Government,NA,6,Explosives/Bombs/Dynamite,package bomb; electronic equipment detected wires and a battery in the package,0,0,0,0,0,0,0,,,,,,
1978,7,1,United States,California,San Francisco,37.777125,-122.419644,,1,0,3,Bombing/Explosion,2,Government (General),15,Politician or Political Party Movement/Meeting/Rally,,Van belonging to California Senator Milton Marks,217,United States,Unknown,Anti-Government,NA,6,Explosives/Bombs/Dynamite,Explosive; Pipe bomb,0,,,0,,,1,3,Minor (likely < $1 million),5000,,0,
1978,10,12,United States,Puerto Rico,San Juan,18.46617,-66.106654,,1,0,3,Bombing/Explosion,2,Government (General),21,Government Building/Facility/Office,,Federal Building,217,United States,Unknown,Anti-Government,NA,6,Explosives/Bombs/Dynamite,Explosive,0,,,0,,,1,,,,,0,
1979,2,3,United States,Puerto Rico,San Juan,18.46617,-66.106654,,1,0,3,Bombing/Explosion,2,Government (General),21,Government Building/Facility/Office,,selective service office,217,United States,Unknown,Anti-Government,NA,6,Explosives/Bombs/Dynamite,Explosive,0,,,0,,,1,4,Unknown,,,0,
1979,6,9,United States,Puerto Rico,Mayaguez,18.201318,-67.145125,,0,0,3,Bombing/Explosion,2,Government (General),21,Government Building/Facility/Office,,post office,217,United States,Unknown,Anti-Government,NA,6,Explosives/Bombs/Dynamite,Package bomb,0,,,0,,,0,,,,,0,
1979,6,29,United States,Puerto Rico,San Juan,18.46617,-66.106654,,1,0,3,Bombing/Explosion,4,Military,27,Military Barracks/Base/Headquarters/Checkpost,,National Guard Headquarters,217,United States,Unknown,Anti-Government,NA,6,Explosives/Bombs/Dynamite,Explosive - homemade,0,,,0,,,1,4,Unknown,,,0,
1979,12,24,United States,Tennessee,Norris,36.195815,-84.068336,,1,0,3,Bombing/Explosion,3,Police,22,"Police Building (headquarters, station, school)",,Police Dept,217,United States,Unknown,Anti-Government,NA,6,Explosives/Bombs/Dynamite,Explosive,0,,,2,,,1,4,Unknown,,,0,
1980,8,25,United States,Puerto Rico,Yauco,18.03496,-66.849844,,0,0,3,Bombing/Explosion,2,Government (General),21,Government Building/Facility/Office,,Post Office,217,United States,Unknown,Anti-Government,NA,6,Explosives/Bombs/Dynamite,Explosive,0,,,0,,,0,,,,"Damages: explosion, none, device deactivated before detonation (post office)",0,
1980,8,25,United States,Puerto Rico,Hato Rey,18.422831,-66.053413,,0,0,3,Bombing/Explosion,2,Government (General),21,Government Building/Facility/Office,,Post Office,217,United States,Unknown,Anti-Government,NA,6,Explosives/Bombs/Dynamite,Explosive,0,,,0,,,0,,,,"Damages: explosion, none, device deactivated before detonation (post office)",0,
1981,8,17,United States,Puerto Rico,San Juan,18.46617,-66.106654,,1,0,1,Assassination,4,Military,34,"Military Personnel (soldiers, troops, officers, forces)",US Marine Corps Roosevelt Roads Naval Station,"Steven D. Miller (killed) and Thomas H. Steinburg (wounded), marines",217,United States,Unknown,Anti-Government,NA,5,Firearms,Pistol,1,,,1,,,0,,,,,0,
1983,3,20,United States,Texas,San Antonio,29.42449,-98.494624,,1,0,3,Bombing/Explosion,2,Government (General),15,Politician or Political Party Movement/Meeting/Rally,,Car belonging to a United States Congressman,217,United States,Unknown,Anti-Government,NA,6,Explosives/Bombs/Dynamite,Bomb placed between trunk and gas tank of vehicle,0,0,0,0,0,0,1,3,Minor (likely < $1 million),,Vehicle destroyed,0,
1983,3,20,United States,Texas,San Antonio,29.42449,-98.494624,,1,0,3,Bombing/Explosion,14,Private Citizens & Property,68,Named Civilian,,Car belonging to John K. Mitchell,217,United States,Unknown,Anti-Government,NA,6,Explosives/Bombs/Dynamite,Bomb placed near gas tank of vehicle,0,0,0,0,0,0,1,3,Minor (likely < $1 million),,Vehicle destroyed and surrounding cars damaged,0,
1983,4,23,United States,District of Columbia,Washington,38.89037,-77.031959,,1,0,7,Facility/Infrastructure Attack,2,Government (General),21,Government Building/Facility/Office,,Office of environmental crimes division of Justice Department,217,United States,Unknown,Anti-Government,NA,8,Incendiary,Incendiary,0,,,0,,,1,,,,,0,
1984,1,27,United States,Texas,Dallas,32.778155,-96.795404,,1,0,1,Assassination,2,Government (General),18,"Government Personnel (excluding police, military)",U.S. Government,"Informer Ward S. Kecton, 63",217,United States,Unknown,Anti-Government,NA,6,Explosives/Bombs/Dynamite,Bomb,1,,,0,,,0,,,,,0,
1986,1,6,United States,Puerto Rico,Guanica,17.97255,-66.908524,,1,0,3,Bombing/Explosion,2,Government (General),21,Government Building/Facility/Office,,Post Office,217,United States,Unknown,Anti-Government,NA,6,Explosives/Bombs/Dynamite,Pipe bomb,0,,,0,,,1,4,Unknown,,,0,
1986,1,6,United States,Puerto Rico,Cidra,18.175791,-66.161278,,1,0,3,Bombing/Explosion,2,Government (General),21,Government Building/Facility/Office,,post office,217,United States,Unknown,Anti-Government,NA,6,Explosives/Bombs/Dynamite,Pipe bomb,0,,,0,,,1,4,Unknown,,,0,
1986,1,6,United States,Puerto Rico,Toa Baja,18.44247,-66.253529,,0,0,3,Bombing/Explosion,4,Military,28,Military Recruiting Station/Academy,,Army recruiting office,217,United States,Unknown,Anti-Government,NA,6,Explosives/Bombs/Dynamite,Pipe bomb,0,,,0,,,0,,,,"Damages: exlposion/pipe bomb, none, device failed to detonate (army recruiting office)",0,
1986,1,6,United States,Puerto Rico,San Juan,18.46617,-66.106654,,1,0,3,Bombing/Explosion,2,Government (General),21,Government Building/Facility/Office,,Post Office,217,United States,Unknown,Anti-Government,NA,6,Explosives/Bombs/Dynamite,Pipe bomb,0,,,0,,,1,,,,"Damages: explosion/pipe bomb, broken windows, damaged doors (post office)",0,
1988,3,29,United States,Puerto Rico,San Juan,18.46617,-66.106654,,1,0,3,Bombing/Explosion,4,Military,27,Military Barracks/Base/Headquarters/Checkpost,National Guard,Armory,217,United States,Unknown,Anti-Government,NA,6,Explosives/Bombs/Dynamite,Explosive,0,,,0,,,1,,,,,0,
1988,7,22,United States,Puerto Rico,Caguas,18.238724,-66.035227,,1,0,3,Bombing/Explosion,4,Military,28,Military Recruiting Station/Academy,U.S. Army,Recruiting Office,217,United States,Unknown,Anti-Government,NA,6,Explosives/Bombs/Dynamite,Explosive,0,,,0,,,1,,,,,0,
1988,9,14,United States,Virginia,Richmond,37.5407,-77.433654,,1,0,5,Hostage Taking (Barricade Incident),4,Military,28,Military Recruiting Station/Academy,Military Recruiting Center,U.S. Military,217,United States,Lebanese Man,Anti-Government,NA,5,Firearms,Firearm,0,0,,0,0,,1,,,,,0,
1989,3,10,United States,California,San Diego,32.715695,-117.161719,,0,0,1,Assassination,4,Military,34,"Military Personnel (soldiers, troops, officers, forces)",Military (Navy),"wife, Capt Will Rogers",217,United States,Unknown,Anti-Government,NA,6,Explosives/Bombs/Dynamite,Explosive,0,0,0,1,1,0,0,,,,,0,
1989,7,14,United States,Puerto Rico,Guayama,17.984055,-66.113657,,1,0,3,Bombing/Explosion,2,Government (General),21,Government Building/Facility/Office,United States Post Office,"U.S. Post Office in Guayama, Puerto Rico",163,Puerto Rico,Unknown,Anti-Government,NA,6,Explosives/Bombs/Dynamite,pipe bomb,0,0,0,0,0,0,1,3,Minor (likely < $1 million),-99,minimal structural damage,,
1989,7,14,United States,Puerto Rico,Coamo,18.080033,-66.357949,,1,0,3,Bombing/Explosion,2,Government (General),21,Government Building/Facility/Office,United States Post Office,"U.S. Post Office in Coamo, Puerto Rico",163,Puerto Rico,Unknown,Anti-Government,NA,6,Explosives/Bombs/Dynamite,pipe bomb,0,0,0,0,0,0,1,3,Minor (likely < $1 million),-99,minimal damage,,
1989,7,24,United States,Puerto Rico,Carolina,18.380782,-65.957387,,1,0,3,Bombing/Explosion,4,Military,28,Military Recruiting Station/Academy,U.S. Army,recruiting office,217,United States,Unknown,Anti-Government,NA,6,Explosives/Bombs/Dynamite,Explosive,0,,,0,,,1,,,,,0,
1989,12,22,United States,Maryland,Hagerstown,39.6425,-77.717579,,0,0,1,Assassination,2,Government (General),14,Judge/Attorney/Court,govt,Maryland State Judge John Courderman,217,United States,Unknown,Anti-Government,NA,6,Explosives/Bombs/Dynamite,Package bomb; Explosive,0,,,1,,,0,,,,,0,
1990,9,15,United States,California,San Diego,32.71361,-117.164736,"900 Front Street, outside Federal Building",1,0,3,Bombing/Explosion,2,Government (General),21,Government Building/Facility/Office,US Government,"Federal Building, housing federal court and other government agency offices",217,United States,Unknown,Anti-Government,NA,6,Explosives/Bombs/Dynamite,"homemade improvised explosive, attached to a freon gas canister to enhance the explosive force; bomb was placed inside a 4-foot diameter tube that was part of a metal sculpture",0,0,0,0,0,0,1,3,Minor (likely < $1 million),-99,blast blew out a 30- foot-by-15-foot glass window on the front of the building and also damaged a guardrail; only slight damage to the sculpture,,
1991,1,24,United States,Puerto Rico,Caguas,18.238724,-66.035227,,1,0,3,Bombing/Explosion,4,Military,28,Military Recruiting Station/Academy,U.S. Military,Army/Navy recruiting center,217,United States,Unknown,Anti-Government,NA,6,Explosives/Bombs/Dynamite,Pipe bomb,,,,,,,1,,,,,0,
1991,2,1,United States,Washington,Maple Grove,47.968837,-123.863087,"at the Soleduck entrance station at Olympic National Park in Lake Crescent, WA",1,0,7,Facility/Infrastructure Attack,2,Government (General),21,Government Building/Facility/Office,U.S. Forest Service,"Soleduck Ranger Station in Lake Crescent, WA",217,United States,Unknown,Anti-Government,NA,8,Incendiary,,0,0,0,0,0,0,1,3,Minor (likely < $1 million),12000,destroyed building,0,
1991,2,1,United States,Washington,Maple Grove,48.067866,-123.916387,"at Fairholm Ranger Station at Olympic National Park in Lake Crescent, WA",1,0,7,Facility/Infrastructure Attack,2,Government (General),21,Government Building/Facility/Office,U.S. Forest Service,"Fairholm Ranger Station in Lake Crescent, WA",217,United States,Unknown,Anti-Government,NA,8,Incendiary,,0,0,0,0,0,0,1,3,Minor (likely < $1 million),30000,destroyed ranger station,0,
1994,9,12,United States,District of Columbia,Washington,38.89037,-77.031959,,1,0,7,Facility/Infrastructure Attack,2,Government (General),17,Head of State,U.S. Gov,The White House,217,United States,Unknown,Anti-Government,NA,13,Unknown,,1,1,,0,0,,1,,,,,0,
1994,10,29,United States,District of Columbia,Washington,38.89037,-77.031959,,0,0,1,Assassination,2,Government (General),15,Politician or Political Party Movement/Meeting/Rally,Govt,White House,217,United States,Unknown,Anti-Government,NA,5,Firearms,Firearm,0,,,0,,,1,,,,,0,
1995,1,7,United States,Arkansas,Little Rock,34.748655,-92.274494,,0,0,3,Bombing/Explosion,3,Police,22,"Police Building (headquarters, station, school)",,Federal Law Enforcement Offices,217,United States,Unknown,Anti-Government,NA,6,Explosives/Bombs/Dynamite,Explosive,0,,,0,,,1,,,,,0,
1995,3,17,United States,California,Los Angeles,34.05349,-118.245319,,0,0,3,Bombing/Explosion,2,Government (General),14,Judge/Attorney/Court,,Court Bldg O.J. Simpson Trial,217,United States,Unknown,Anti-Government,NA,6,Explosives/Bombs/Dynamite,Explosive,0,,,0,,,1,,,,,0,
1995,3,31,United States,Nevada,Carson City,39.164885,-119.766999,,1,0,3,Bombing/Explosion,2,Government (General),21,Government Building/Facility/Office,,U.S. Forest Service Ofc.,217,United States,Unknown,Anti-Government,NA,6,Explosives/Bombs/Dynamite,Explosive,0,,,0,,,1,,,,,0,
1995,4,13,United States,Florida,Jacksonville,30.33138,-81.655799,Bomb placed in front of tax collector's office,1,0,3,Bombing/Explosion,2,Government (General),21,Government Building/Facility/Office,Tax collector's office,Duval county tax collector's office,217,United States,Unknown,Anti-Government,NA,6,Explosives/Bombs/Dynamite,Pipe bomb,0,0,0,0,0,0,1,3,Minor (likely < $1 million),,"Hole blown through roof, all windows of tax office shattered, and a next door restaurant sustained damages.",0,
1995,5,23,United States,District of Columbia,Washington,38.89037,-77.031959,,0,0,2,Armed Assault,2,Government (General),17,Head of State,,White House,217,United States,Unknown,Anti-Government,NA,5,Firearms,Handgun,0,,,2,,,1,,,,,0,
1995,8,5,United States,Nevada,Carson City,39.164885,-119.766999,,1,0,3,Bombing/Explosion,2,Government (General),18,"Government Personnel (excluding police, military)",,US Forest Service officers residence,217,United States,Unknown,Anti-Government,NA,6,Explosives/Bombs/Dynamite,Car bomb,0,,,0,,,1,,,,,0,
1995,10,30,United States,Illinois,Chicago,41.88415,-87.632409,,1,0,3,Bombing/Explosion,2,Government (General),14,Judge/Attorney/Court,,Fed Judge,217,United States,Unknown,Anti-Government,NA,6,Explosives/Bombs/Dynamite,Explosive,0,,,0,,,1,,,,,0,
1995,12,18,United States,Nevada,Reno,39.527395,-119.813414,,0,0,3,Bombing/Explosion,2,Government (General),18,"Government Personnel (excluding police, military)",,IRS,217,United States,Unknown,Anti-Government,NA,6,Explosives/Bombs/Dynamite,Explosive,0,,,0,,,1,,,,,0,
1996,5,20,United States,Texas,Laredo,27.53052,-99.48005,,1,0,3,Bombing/Explosion,3,Police,22,"Police Building (headquarters, station, school)",,FBI Offices,217,United States,Organization 544,Anti-Government,NA,6,Explosives/Bombs/Dynamite,Explosive,0,,,0,,,1,,,,,0,
1997,1,2,United States,Kansas,Leavenworth,39.31927,-94.915599,,0,0,3,Bombing/Explosion,3,Police,26,Prison/Jail,,Federal Peniteniary,217,United States,Unknown,Anti-Government,NA,6,Explosives/Bombs/Dynamite,Letter bomb,0,,,0,,,1,,,,,0,
1997,1,2,United States,Pennsylvania,Philadelphia,39.95227,-75.162369,,0,0,3,Bombing/Explosion,2,Government (General),17,Head of State,,U.S. President,217,United States,Unknown,Anti-Government,NA,6,Explosives/Bombs/Dynamite,Package bomb,0,,,0,,,1,,,,,0,
1997,1,30,United States,California,San Diego,32.715695,-117.161719,,0,0,3,Bombing/Explosion,3,Police,,,,FBI,217,United States,Unknown,Anti-Government,NA,6,Explosives/Bombs/Dynamite,Explosive,0,,,0,,,1,,,,,0,
1997,2,1,United States,California,Chula Vista,32.6409,-117.084279,,0,0,3,Bombing/Explosion,2,Government (General),18,"Government Personnel (excluding police, military)",,home of federal employee,217,United States,Unknown,Anti-Government,NA,6,Explosives/Bombs/Dynamite,Explosive,0,,,0,,,1,,,,,0,
1997,4,8,United States,Illinois,Urbana,40.11727,-88.204489,,0,0,1,Assassination,2,Government (General),14,Judge/Attorney/Court,,judge,217,United States,Unknown,Anti-Government,NA,8,Incendiary,Incendiary; Fure bomb,0,,,0,,,1,,,,,0,
1997,12,2,United States,Puerto Rico,Arecibo,18.47239,-66.719734,,0,0,3,Bombing/Explosion,4,Military,28,Military Recruiting Station/Academy,Govt,Army Recruiting Office,217,United States,Unknown,Anti-Government,NA,6,Explosives/Bombs/Dynamite,Pipe bomb,0,,,0,,,1,,,,,0,
1998,3,26,United States,California,Los Angeles,33.985215,-118.452109,,0,0,8,Unarmed Assault,2,Government (General),18,"Government Personnel (excluding police, military)",Marina Del Rey,"Police officers, city officials, and mental health workers in Marina Del Rey, California",217,United States,Unknown,Anti-Government,NA,2,Chemical,Cyanide mailed to victims inside of letters.,0,0,0,0,0,0,0,,,,,,
1998,7,24,United States,District of Columbia,Washington,38.89037,-77.031959,,1,0,2,Armed Assault,2,Government (General),21,Government Building/Facility/Office,United States Legislature,The U.S. Capitol Building in Washington D.C.,217,United States,Unknown,Anti-Government,NA,5,Firearms,A .38-caliber gun was used in the attack.,2,2,0,1,1,0,0,,,,,,
1998,8,2,United States,Indiana,Lafayette,40.41737,-86.876554,,1,0,3,Bombing/Explosion,2,Government (General),14,Judge/Attorney/Court,Indiana Judicial System,The County Courthouse in Lafayette,217,United States,Unknown,Anti-Government,NA,6,Explosives/Bombs/Dynamite,"A pick-up truck was rammed into the target building carrying a homemade bomb.  The bomb failed to detonate, although accelerant ignited starting a fire.",0,0,0,0,0,0,1,3,Minor (likely < $1 million),,,,
1999,3,29,United States,Nevada,Las Vegas,36.171915,-115.139974,,0,0,3,Bombing/Explosion,2,Government (General),18,"Government Personnel (excluding police, military)","Bureau of Alcohol, Tobacco and Firearms","Bureau of Alcohol, Tobacco and Firearms office in Las Vegas Nevada",217,United States,Unknown,Anti-Government,NA,6,Explosives/Bombs/Dynamite,Pipe bomb sent in a package,0,0,0,0,0,0,0,,,,,0,
2000,3,22,United States,Utah,Ogden,41.222365,-111.970459,,1,0,8,Unarmed Assault,2,Government (General),18,"Government Personnel (excluding police, military)",Internal Revenue Service (IRS),"Employees at a Internal Revenue Service processing center in Ogden, Utah",217,United States,Unknown,Anti-Government,NA,2,Chemical,,0,0,0,3,3,0,0,,,,,,
2000,4,3,United States,Missouri,Kansas City,39.10296,-94.583062,,1,0,8,Unarmed Assault,2,Government (General),21,Government Building/Facility/Office,Internal Revenue Service (IRS),"An IRS office in Kansas City, Missouri",217,United States,Unknown,Anti-Government,NA,2,Chemical,,0,0,0,3,3,0,0,,,,,,
2000,7,19,United States,Wisconsin,Milwaukee,43.04181,-87.906844,,0,0,3,Bombing/Explosion,4,Military,31,Military Aircraft,U.S. Military,128th Air Refueling Wing Aircraft,217,United States,Unknown,Anti-Government,NA,6,Explosives/Bombs/Dynamite,,0,0,0,0,0,0,1,3,Minor (likely < $1 million),,Graffiti was sprayed on two buildings and a satellite dish.,,
2001,8,8,United States,Puerto Rico,Vieques,18.14859,-65.442114,,0,0,3,Bombing/Explosion,4,Military,34,"Military Personnel (soldiers, troops, officers, forces)",United States Navy,"Two United States Navy sailors in Vieques, Puerto Rico",217,United States,Unknown,Anti-Government,NA,8,Incendiary,The perpetrators threw Molotov Cocktails at the sailors.,0,0,0,0,0,0,0,,,,,,
2001,10,9,United States,District of Columbia,Washington,38.89037,-77.031959,,1,0,8,Unarmed Assault,2,Government (General),15,Politician or Political Party Movement/Meeting/Rally,United States Senate,U.S. Senator Patrick Leahy,217,United States,Unknown,Anti-Government,NA,1,Biological,Anthrax (Bacillus anthracis) laced letters were mailed to the office of Senator Patrick Leahy.,2,2,0,1,1,0,0,,,,,,
2001,10,17,United States,New York,New York City,40.750117,-73.97506,The office of Governor Pataki at 633 Third Avenue,0,0,8,Unarmed Assault,2,Government (General),21,Government Building/Facility/Office,Offices of New York State Governor,George Pataki and employees in his office,217,United States,Unknown,Anti-Government,NA,1,Biological,"The source of the anthrax was unclear, as the tests done cleared a suspicious letter that was thought to be the source.",0,0,0,0,0,0,0,,,,,,
2001,10,26,United States,District of Columbia,Washington,38.89037,-77.031959,,1,0,8,Unarmed Assault,2,Government (General),14,Judge/Attorney/Court,United States Supreme Court,The off-site mail facility for the United States Supreme Court in Washington D.C.,217,United States,Unknown,Anti-Government,NA,1,Biological,Anthrax (Bacillus anthracis) was placed inside a letter mailed to the US Supreme Court.,,0,0,,0,0,0,,,,,,
2003,3,17,United States,District of Columbia,Washington,38.889601,-77.021982,National Mall,0,0,3,Bombing/Explosion,2,Government (General),21,Government Building/Facility/Office,National Mall,Constitution Gardens,217,United States,Unknown,Anti-Government,NA,7,Fake Weapons,Fake organophosphate bomb in a box that was actually just two aerosol cans and Raid insecticide,0,0,0,0,0,0,1,2,Major (likely > $1 million but < $1 billion),,Tractor damaged the Constitution Gardens. DC streets and federal buildings shut down.,0,
2003,10,15,United States,South Carolina,Greenville,34.84802,-82.400219,,0,0,8,Unarmed Assault,2,Government (General),21,Government Building/Facility/Office,U.S. Department of Transportation,"The Federal Carrier Safety Administration within the U.S. Department of Transportation in Greenville, South Carolina.",217,United States,Unknown,Anti-Government,NA,1,Biological,Ricin was sent through the mail in a package.,0,0,0,0,0,0,0,,,,,,
2003,11,12,United States,District of Columbia,Washington,38.89037,-77.031959,,0,0,8,Unarmed Assault,2,Government (General),17,Head of State,Executive Branch,The White House,217,United States,Unknown,Anti-Government,NA,1,Biological,Ricin was sent through the mail in a package.,0,0,0,0,0,0,0,,,,,,
2004,2,2,United States,District of Columbia,Washington,38.89037,-77.031959,,0,0,7,Facility/Infrastructure Attack,2,Government (General),21,Government Building/Facility/Office,United States Senate,The office of U.S. Senate Majority leader Bill Frist in Washington D.C.,217,United States,Unknown,Anti-Government,NA,1,Biological,Ricin was sent through the mail in a package.,0,0,0,0,0,0,0,,,,,,
2005,2,13,United States,California,Auburn,38.896549,-121.076948,"outside Placer County Courthouse in Auburn, CA",0,0,3,Bombing/Explosion,2,Government (General),14,Judge/Attorney/Court,Placer County Government,"Placer County Superior Courthouse in Auburn, CA",217,United States,Unknown,Anti-Government,NA,6,Explosives/Bombs/Dynamite,possibly fertilizer bomb,0,0,0,0,0,0,0,,,,,0,
2005,2,15,United States,California,Auburn,38.907241,-121.08435,"at the DMV on Enterprise Drive in Auburn, CA",0,0,3,Bombing/Explosion,2,Government (General),21,Government Building/Facility/Office,Department of Motor Vehicles,"offices of the Department of Motor Vehicles in Auburn, CA",217,United States,Unknown,Anti-Government,NA,6,Explosives/Bombs/Dynamite,"a piece of PVC pipe with duct tape, gun powder in the center and wires attached",0,0,0,0,0,0,0,,,,,0,
2005,3,14,United States,Virginia,Arlington,38.880777,-77.108273,,0,0,8,Unarmed Assault,2,Government (General),18,"Government Personnel (excluding police, military)",United States Military,The Pentagon,217,United States,Unknown,Anti-Government,NA,1,Biological,,0,0,0,0,0,0,0,,,,,,
2008,3,6,United States,New York,New York City,40.712784,-74.005941,,1,0,3,Bombing/Explosion,4,Military,27,Military Barracks/Base/Headquarters/Checkpost,Military,Joint Armed Forces Career Center,217,United States,Unknown,Anti-Government,NA,6,Explosives/Bombs/Dynamite,The device was improvised.,0,0,0,0,0,0,1,3,Minor (likely < $1 million),,,,
2008,6,14,United States,New Mexico,Deming,32.268085,-107.75867,"The attempted attack took place on a patrol road in a remote stretch of the southern New Mexico desert near Deming, United States.",0,0,8,Unarmed Assault,3,Police,23,Police Patrol (including vehicles and convoys),U.S. Border Patrol,U.S. Border Patrol agents riding all terrain vehicles,217,United States,Unknown,Anti-Government,NA,12,Other,"A booby trap of two sections of thin wire strung tight across the road, tied four feet above the ground to a cattle fence on one side and a mesquite tree on the other was used in the attempted bombing attack.",0,0,0,0,0,0,0,,,,,,
2008,7,25,United States,California,La Jolla,32.832925,-117.271312,,1,0,2,Armed Assault,18,Tourists,97,Tourist,,The two assailants targeted an Irish tourist.,96,Ireland,Unknown,Anti-Government,NA,9,Melee,Knives were used in the attack.,0,0,0,1,0,0,0,,,,,,
2010,9,1,United States,Maryland,Silver Spring,38.995508,-77.028075,"The incident occurred at 1 Discovery Place at the corner of Georgia Avenue and Colesville Road in Silver Spring, MD",1,1,5,Hostage Taking (Barricade Incident),10,Journalists & Media,55,Television Journalist/Staff/Facility,Discovery Communications,Discovery Communications headquarters offices and employees,217,United States,Unknown,Anti-Government,NA,6,Explosives/Bombs/Dynamite,"two starter pistols, four IEDs (two propane cylinders strapped to body with pipes holding shotgun shells, and two pipe bombs)",1,1,1,0,0,0,0,,,,,0,
2011,1,6,United States,Maryland,Annapolis,38.9767,-76.489934,The incident occurred at the governor's office and the transportation secretary's office.,1,0,2,Armed Assault,2,Government (General),18,"Government Personnel (excluding police, military)",Maryland State Government,Governor Martin O'Malley,217,United States,Unknown,Anti-Government,NA,8,Incendiary,An unknown incendiary device was used in the attack.,0,0,0,1,0,0,0,,,,,,
2011,1,6,United States,Maryland,Hanover,39.192978,-76.7238,The Transportation Secretary's office building,1,0,2,Armed Assault,2,Government (General),18,"Government Personnel (excluding police, military)",Maryland State Government,Transportation Secretary Beverly Swaim-Staley,217,United States,Unknown,Anti-Government,NA,8,Incendiary,An unknown incendiary device was used in the attack.,0,0,0,1,0,0,0,,,,,,
2011,1,7,United States,District of Columbia,Washington,38.89037,-77.031959,"At a postal sorting facility in Washington, DC.",0,0,3,Bombing/Explosion,2,Government (General),18,"Government Personnel (excluding police, military)",American Government,The target of the attack was Homeland Security Secretary Janet Napolitano.,217,United States,Unknown,Anti-Government,NA,6,Explosives/Bombs/Dynamite,An unknown incendiary device was used in the attack.,0,0,0,0,0,0,0,,,,,,
2015,3,20,United States,Louisiana,New Orleans,29.984368,-90.257301,,1,0,2,Armed Assault,6,Airports & Aircraft,44,Airport,Louis Armstrong New Orleans International Airport,Transportation Security Administration (TSA) Checkpoint,217,United States,Unknown,Anti-Government,NA,8,Incendiary,"Six Molotov cocktails, a machete, and insecticide were used in the attack.",1,1,1,2,2,0,0,,,,,,
2016,7,9,United States,Texas,San Antonio,29.422977,-98.498591,,1,0,2,Armed Assault,3,Police,22,"Police Building (headquarters, station, school)",San Antonio City Police,Police Station,217,United States,Unknown,Anti-Government,NA,5,Firearms,,0,0,0,0,0,0,1,3,Minor (likely < $1 million),-99,A police station was damaged in this attack.,,
1976,1,21,United States,California,Sacramento,38.546887,-121.508201,synagogue,0,0,3,Bombing/Explosion,15,Religious Figures/Institutions,86,Place of Worship,Temple B'nai Israel,synagogue,217,United States,Unknown,Anti-Jewish,Anti-Jewish,6,Explosives/Bombs/Dynamite,,0,0,0,0,0,0,0,,,,,,
1977,7,25,United States,Maryland,Rockville,39.081665,-77.15124,,1,0,1,Assassination,14,Private Citizens & Property,82,Labor Union Related,American Israel Public Affairs Comm.,Morris J. Amitay,999,Multinational,Unknown,Anti-Jewish,Anti-Jewish,6,Explosives/Bombs/Dynamite,Explosives,0,0,,0,0,,1,,,,,1,50000
1979,11,18,United States,New York,New York City,40.712784,-74.005941,,1,0,3,Bombing/Explosion,1,Business,3,Bank/Commerce,,Branch of Israel Discount Trust Company,97,Israel,Unknown,Anti-Jewish,Anti-Jewish,6,Explosives/Bombs/Dynamite,Explosive,0,,,0,,,1,,,,,0,
1982,10,8,United States,New York,New York City,40.78306,-73.971249,Manhattan; West 34th Street between Fifth and Sixth Avenues,1,0,3,Bombing/Explosion,17,Terrorists/Non-State Militia,93,Terrorist,Jewish Defense League,"JDL offices in Manhattan, New York",217,United States,Unknown,Anti-Jewish,Anti-Jewish,6,Explosives/Bombs/Dynamite,"bomb made of ""high-grade"" explosive material",0,0,0,0,0,0,1,3,Minor (likely < $1 million),-99,blast damaged two walls and a door,,
1990,2,8,United States,Tennessee,Knoxville,36.012576,-84.016279,"outside residence at 6608 Northboro Rd in Knoxville, TN",1,0,1,Assassination,8,Educational Institution,50,Other Personnel,"Hyram Kitchen, dean of the University of Tennessee College of Veterinary Medicine","Hyram Kitchen, dean of the University of Tennessee College of Veterinary Medicine",217,United States,Unknown,Anti-Jewish,Anti-Jewish,5,Firearms,.22 caliber handgun,1,1,0,0,0,0,0,,,,,0,
1990,5,20,United States,New York,New York City,40.712784,-74.005941,,1,0,3,Bombing/Explosion,14,Private Citizens & Property,78,"Procession/Gathering (funeral, wedding, birthday, religious)",,Jewish Group meeting at Sheraton Hotel,217,United States,Unknown,Anti-Jewish,Anti-Jewish,6,Explosives/Bombs/Dynamite,Explosive,0,,,0,,,1,,,,,0,
1990,5,23,United States,New York,New York City,40.712784,-74.005941,,1,0,3,Bombing/Explosion,14,Private Citizens & Property,78,"Procession/Gathering (funeral, wedding, birthday, religious)",,Jewish Group meeting at New York Hilton,217,United States,Unknown,Anti-Jewish,Anti-Jewish,6,Explosives/Bombs/Dynamite,Explosive,0,,,0,,,1,,,,,0,
1994,1,6,United States,New York,New York City,40.78306,-73.971249,Manhattan,0,0,3,Bombing/Explosion,14,Private Citizens & Property,82,Labor Union Related,Left-wing Jewish organizations in the United States,"Offices of the Americans for Progressive Israel, Israel Horizons and the Progressive Zionist Caucus housed in a building on 27 West 20th Street, Manhattan New York",217,United States,Maccabee Squad and the Shield of David,Anti-Jewish,Anti-Jewish,6,Explosives/Bombs/Dynamite,Bomb consisting of a thermos bottle connected to an egg timer filled with black explosive powder,0,0,0,0,0,0,0,,,,,0,
1994,1,6,United States,New York,New York City,40.78306,-73.971249,Manhattan,0,0,3,Bombing/Explosion,14,Private Citizens & Property,82,Labor Union Related,Left-wing Jewish organization in the United States,Office of the New Israel Fund housed in a building on 111 West 40th Street,217,United States,Maccabee Squad and the Shield of David,Anti-Jewish,Anti-Jewish,6,Explosives/Bombs/Dynamite,Bomb consisting of a thermos bottle connected to an egg timer filled with black explosive powder,0,0,0,0,0,0,0,,,,,0,
1996,7,17,United States,New York,New York City,40.712784,-74.005941,,1,0,3,Bombing/Explosion,15,Religious Figures/Institutions,86,Place of Worship,,Synagogue,217,United States,Unknown,Anti-Jewish,Anti-Jewish,6,Explosives/Bombs/Dynamite,Explosive,0,,,0,,,1,,,,,0,
2008,4,22,United States,Florida,Miami Beach,25.793095,-80.134904,The incident occurred at 2401 Pinetree Drive.,1,0,7,Facility/Infrastructure Attack,15,Religious Figures/Institutions,86,Place of Worship,Chabad House Synagogue,The Chabad House synagogue in Miami Beach,217,United States,Unknown,Anti-Jewish,Anti-Jewish,8,Incendiary,The synagogue was set on fire.,0,0,0,0,0,0,1,2,Major (likely > $1 million but < $1 billion),,The Chabad House synagogue was completely destroyed.,,
2016,8,9,United States,New York,New City,41.162402,-74.004905,,1,0,3,Bombing/Explosion,15,Religious Figures/Institutions,85,Religious Figure,Unknown,Rabbi: Simcha Morgenstern,217,United States,Unknown,Anti-Jewish,Anti-Jewish,6,Explosives/Bombs/Dynamite,A firecracker was used in the attack.,0,0,0,0,0,0,-9,,,,,,
2016,8,9,United States,New York,New City,41.166236,-73.991496,,1,0,3,Bombing/Explosion,15,Religious Figures/Institutions,85,Religious Figure,Unknown,Rabbi: Avremel Kotlarsky,217,United States,Unknown,Anti-Jewish,Anti-Jewish,6,Explosives/Bombs/Dynamite,A firecracker was used in the attack.,0,0,0,0,0,0,1,3,Minor (likely < $1 million),-99,Shrubs were damaged in this attack.,,
1980,10,1,United States,California,Los Angeles,34.05349,-118.245319,,1,0,2,Armed Assault,10,Journalists & Media,55,Television Journalist/Staff/Facility,,local TV station,217,United States,Unknown,Anti-Journalist,Anti-Journalist,6,Explosives/Bombs/Dynamite,Bullets,0,,,0,,,1,,,,,0,
1989,2,28,United States,New York,New York City,40.712784,-74.005941,,1,0,7,Facility/Infrastructure Attack,10,Journalists & Media,53,Newspaper Journalist/Staff/Facility,Riverdale Press,Offices of Riverdale Press,217,United States,Unknown,Anti-Journalist,Anti-Journalist,8,Incendiary,Molotov cocktails,,,,,,,1,,,,,0,
1994,7,19,United States,Mississippi,Jackson,32.29869,-90.180489,,0,0,1,Assassination,10,Journalists & Media,55,Television Journalist/Staff/Facility,ABC TV,President Robert Iger,217,United States,Unknown,Anti-Journalist,Anti-Journalist,6,Explosives/Bombs/Dynamite,Package bomb,0,,,0,,,1,,,,,0,
1996,1,23,United States,Florida,Miami,25.764367,-80.201529,,1,0,3,Bombing/Explosion,10,Journalists & Media,54,Radio Journalist/Staff/Facility,TV Station: USVN/Radio WTOD,Radio/TV Stations,217,United States,Unknown,Anti-Journalist,Anti-Journalist,6,Explosives/Bombs/Dynamite,Explosive,1,1,,0,,,1,,,,,0,
2001,10,2,United States,Florida,Boca Raton,26.368306,-80.128932,,1,0,8,Unarmed Assault,10,Journalists & Media,53,Newspaper Journalist/Staff/Facility,American Media Inc.,"American Media Inc. headquarters in Boca Raton, Florida",217,United States,Unknown,Anti-Journalist,Anti-Journalist,1,Biological,Anthrax (Bacillus anthracis) laced letters were mailed to the offices American Media Inc.,1,1,0,5,5,0,0,,,,,,
2001,10,12,United States,New York,New York City,40.712784,-74.005941,,1,0,8,Unarmed Assault,10,Journalists & Media,53,Newspaper Journalist/Staff/Facility,National Broadcasting Company (NBC),Tom Brokaw,217,United States,Unknown,Anti-Journalist,Anti-Journalist,1,Biological,Bacillus anthracis (Anthrax),0,0,0,6,6,0,0,,,,,,
2001,10,15,United States,District of Columbia,Washington,38.89037,-77.031959,,1,0,8,Unarmed Assault,2,Government (General),15,Politician or Political Party Movement/Meeting/Rally,United States Senate,Senator Tom Daschle's office,217,United States,Unknown,Anti-Journalist,Anti-Journalist,1,Biological,Anthrax (Bacillus anthracis) was mailed to the office of Senator Tom Daschle.,2,2,0,6,6,0,0,,,,,,
2001,10,15,United States,New York,New York City,40.712784,-74.005941,,1,0,8,Unarmed Assault,10,Journalists & Media,53,Newspaper Journalist/Staff/Facility,American Broadcasting Company (ABC),ABC News offices in New York City,217,United States,Unknown,Anti-Journalist,Anti-Journalist,1,Biological,Anthrax (Bacillus anthracis) was used in the attack.,0,0,0,1,1,0,0,,,,,,
2001,10,18,United States,New York,New York City,40.712784,-74.005941,,1,0,8,Unarmed Assault,10,Journalists & Media,53,Newspaper Journalist/Staff/Facility,CBS Broadcasting Inc. (CBS),"CBS Anchorman, Dan Rather",217,United States,Unknown,Anti-Journalist,Anti-Journalist,1,Biological,Anthrax (Bacillus anthracis) laced letters that were mailed to Dan Rather at CBS Inc. in New York City.,0,0,0,1,1,0,0,,,,,,
2001,10,19,United States,New York,New York City,40.712784,-74.005941,,1,0,8,Unarmed Assault,10,Journalists & Media,53,Newspaper Journalist/Staff/Facility,New York Post,Editor in Chief of the New York Post,217,United States,Unknown,Anti-Journalist,Anti-Journalist,1,Biological,Bacillus anthracis (Anthrax),0,0,0,2,2,0,0,,,,,,
2016,8,23,United States,Massachusetts,Salem,42.521477,-70.895532,The incident occurred at Lappin Park.,1,0,3,Bombing/Explosion,10,Journalists & Media,53,Newspaper Journalist/Staff/Facility,Rainbow Times,Newspaper Box,217,United States,Unknown,Anti-Journalist,Anti-Journalist,6,Explosives/Bombs/Dynamite,,0,0,0,0,0,0,1,3,Minor (likely < $1 million),-99,A newspaper box was damaged in this attack.,,
1977,3,9,United States,District of Columbia,Washington,38.89037,-77.031959,,1,0,5,Hostage Taking (Barricade Incident),2,Government (General),21,Government Building/Facility/Office,,District Bldg.,217,United States,Hanafi Muslims,Anti-Muslim,Anti-Muslim,5,Firearms,Pistols,1,,,,,,1,,,,,0,
1977,3,9,United States,District of Columbia,Washington,38.89037,-77.031959,,1,0,2,Armed Assault,14,Private Citizens & Property,81,Museum/Cultural Center/Cultural House,,Islamic Center,217,United States,Hanafi Muslims,Anti-Muslim,Anti-Muslim,5,Firearms,Pistols,,,,,,,1,,,,,0,
1977,3,9,United States,District of Columbia,Washington,38.89037,-77.031959,,1,0,5,Hostage Taking (Barricade Incident),15,Religious Figures/Institutions,87,Affiliated Institution,,B,217,United States,Hanafi Muslims,Anti-Muslim,Anti-Muslim,5,Firearms,Pistols,,,,,,,1,,,,,0,
1979,11,21,United States,New York,New York City,40.728224,-73.794852,Queens; 101-03 43rd Avenue,1,0,7,Facility/Infrastructure Attack,15,Religious Figures/Institutions,86,Place of Worship,Islamic Center of Corona,Islamic mosque,217,United States,Unknown,Anti-Muslim,Anti-Muslim,8,Incendiary,ignited a flammable liquid,0,0,0,0,0,0,1,3,Minor (likely < $1 million),-99,slight damage to front door and first floor,,
1982,9,1,United States,Arizona,Tempe,33.42551,-111.937419,,1,0,3,Bombing/Explosion,15,Religious Figures/Institutions,87,Affiliated Institution,Islamic Cultural Center,"Islamic Cultural Center in Tempe, AZ",217,United States,Unknown,Anti-Muslim,Anti-Muslim,6,Explosives/Bombs/Dynamite,"standard, home-made, lead pipe bomb",0,0,0,0,0,0,1,3,Minor (likely < $1 million),-99,damage to front door,,
1983,8,9,United States,Michigan,Detroit,42.331685,-83.047924,,1,0,7,Facility/Infrastructure Attack,15,Religious Figures/Institutions,87,Affiliated Institution,Ahmadiyya Movement in Islam (AMI) center,Islamic center in Detroit,217,United States,Unknown,Anti-Muslim,Anti-Muslim,8,Incendiary,gasoline and other flammable liquid spread over the first and second floor and ignited,2,2,2,0,0,0,1,3,Minor (likely < $1 million),-99,,,
1990,3,30,United States,Massachusetts,Quincy,42.252285,-71.004164,,1,0,7,Facility/Infrastructure Attack,15,Religious Figures/Institutions,86,Place of Worship,Islamic Center of New England,"Islamic Center of New England mosque in Quincy, Massachusetts",217,United States,Unknown,Anti-Muslim,Anti-Muslim,8,Incendiary,three-alarm fire,0,0,0,0,0,0,1,3,Minor (likely < $1 million),500000,,,
1991,1,11,United States,California,San Diego,32.715695,-117.161719,Bomb in trash can under sink,0,0,3,Bombing/Explosion,15,Religious Figures/Institutions,86,Place of Worship,Mosque,Islamic Center of San Diego,217,United States,Unknown,Anti-Muslim,Anti-Muslim,6,Explosives/Bombs/Dynamite,Homemade pipe bomb,0,0,0,0,0,0,0,,,,,0,
1994,5,29,United States,California,Riverside,33.953349,-117.396156,,0,0,1,Assassination,15,Religious Figures/Institutions,85,Religious Figure,Nation of Islam,Khallid Abdul Muhammad,217,United States,Unknown,Anti-Muslim,Anti-Muslim,5,Firearms,Pistol - 9 mm caliber,0,,,3,,,0,,,,,0,
1994,9,6,United States,California,Yuba City,39.14076,-121.619399,,1,0,7,Facility/Infrastructure Attack,15,Religious Figures/Institutions,86,Place of Worship,Muslim Religion,Islamic Center/Mosque,217,United States,Unknown,Anti-Muslim,Anti-Muslim,8,Incendiary,Flammable liquid,0,,,0,,,1,3,Minor (likely < $1 million),900000,,0,
1997,1,2,United States,District of Columbia,Washington,38.89037,-77.031959,,0,0,3,Bombing/Explosion,10,Journalists & Media,53,Newspaper Journalist/Staff/Facility,,Al-Hayat Newspaper,173,Saudi Arabia,Unknown,Anti-Muslim,Anti-Muslim,6,Explosives/Bombs/Dynamite,Letter bomb,0,,,0,,,1,,,,,0,
2005,12,20,United States,Ohio,Cincinnati,39.150174,-84.518436,"3668 Clifton AvenueCincinnati, OH 45220",1,0,3,Bombing/Explosion,15,Religious Figures/Institutions,86,Place of Worship,Mosque,Islamic Association of Cincinnati,217,United States,Unknown,Anti-Muslim,Anti-Muslim,6,Explosives/Bombs/Dynamite,Pipebomb,0,0,0,0,0,0,1,4,Unknown,,No information given on the extent of the damage done to the mosqu or surounding area.,,
2010,5,10,United States,Florida,Jacksonville,30.33138,-81.655799,,1,0,3,Bombing/Explosion,15,Religious Figures/Institutions,86,Place of Worship,Mosque,Islamic Center of Northeast Florida,217,United States,Unknown,Anti-Muslim,Anti-Muslim,6,Explosives/Bombs/Dynamite,Pipebomb,0,0,0,0,0,0,1,4,Unknown,,There was a small fire and the wall where the bomb was left was blackened.,,
2011,4,23,United States,California,Stockton,37.957702,-121.29078,,1,0,7,Facility/Infrastructure Attack,15,Religious Figures/Institutions,86,Place of Worship,Masjid Al Emaan Mosque,The Masjid Al Emaan Mosque,217,United States,Unknown,Anti-Muslim,Anti-Muslim,8,Incendiary,An unknown incendiary device was used in the attack.,0,0,0,0,0,0,1,3,Minor (likely < $1 million),400000,"The attack caused about $400,000 of monetary damage to the Masjid Al Emaan Mosque.",,
2012,8,12,United States,Illinois,Lombard,41.880028,-88.007845,,1,0,3,Bombing/Explosion,8,Educational Institution,49,School/University/Educational Building,College Preparatory School of America,Islamic School,217,United States,Unknown,Anti-Muslim,Anti-Muslim,2,Chemical,A thrown homemade bomb containing acid and other chemicals was used in the attack.,0,0,0,0,0,0,1,3,Minor (likely < $1 million),-99,A building was damaged in this attack.,,
2014,3,18,United States,Mississippi,Hattiesburg,31.32747,-89.327765,,1,0,2,Armed Assault,15,Religious Figures/Institutions,86,Place of Worship,Hattiesburg Islamic Center,Mosque,217,United States,Unknown,Anti-Muslim,Anti-Muslim,5,Firearms,,0,0,0,0,0,0,1,3,Minor (likely < $1 million),-99,An unknown number of doors and windows were damaged in this attack.,,
2014,3,25,United States,Illinois,Orland Park,41.630557,-87.854074,,1,0,7,Facility/Infrastructure Attack,15,Religious Figures/Institutions,86,Place of Worship,Prayer Center of Orland Park,Mosque,217,United States,Unknown,Anti-Muslim,Anti-Muslim,5,Firearms,,0,0,0,0,0,0,1,3,Minor (likely < $1 million),-99,The dome of a mosque was damaged in this attack.,,
2014,11,4,United States,California,Coachella,33.693175,-116.18749,,1,0,2,Armed Assault,15,Religious Figures/Institutions,86,Place of Worship,Islamic Society of Coachella Valley,Mosque,217,United States,Unknown,Anti-Muslim,Anti-Muslim,5,Firearms,,0,0,0,0,0,0,1,3,Minor (likely < $1 million),-99,A vehicle and the Islamic Society of the Coachella Valley mosque were damaged in this attack.,,
2015,12,26,United States,California,Tracy,37.764563,-121.452503,,1,0,2,Armed Assault,15,Religious Figures/Institutions,86,Place of Worship,Tracy Islamic Center,Mosque,217,United States,Unknown,Anti-Muslim,Anti-Muslim,8,Incendiary,A Molotov cocktail was used in the attack.,0,0,0,0,0,0,1,3,Minor (likely < $1 million),1000,A mosque was damaged in this attack.,,
2016,7,17,United States,Florida,Tampa,28.011485,-82.373941,,1,0,7,Facility/Infrastructure Attack,8,Educational Institution,49,School/University/Educational Building,Islamic Education Center,Education Center,217,United States,Unknown,Anti-Muslim,Anti-Muslim,8,Incendiary,,0,0,0,0,0,0,1,3,Minor (likely < $1 million),-99,An Islamic education center was damaged in this attack.,,
2016,7,27,United States,Florida,Tampa,27.987652,-82.550249,,1,0,7,Facility/Infrastructure Attack,8,Educational Institution,49,School/University/Educational Building,Islamic Education Center,Education Center,217,United States,Unknown,Anti-Muslim,Anti-Muslim,8,Incendiary,,0,0,0,0,0,0,1,3,Minor (likely < $1 million),-99,An Islamic education center was damaged in this attack.,,
2016,8,4,United States,Florida,Tampa,28.032289,-82.408025,,1,0,7,Facility/Infrastructure Attack,15,Religious Figures/Institutions,86,Place of Worship,Masjid Omar Mosque,Mosque,217,United States,Unknown,Anti-Muslim,Anti-Muslim,8,Incendiary,Gasoline was used in the attack.,0,0,0,0,0,0,1,3,Minor (likely < $1 million),-99,A mosque was damaged in this attack.,,
2016,8,5,United States,Florida,Tampa,28.032289,-82.408025,,1,0,7,Facility/Infrastructure Attack,15,Religious Figures/Institutions,86,Place of Worship,Masjid Omar Mosque,Mosque,217,United States,Unknown,Anti-Muslim,Anti-Muslim,8,Incendiary,Gasoline was used in the attack.,0,0,0,0,0,0,1,3,Minor (likely < $1 million),25000,"A mosque sustained $25,000 USD in damage.",,
2016,8,13,United States,New York,New York City,40.6794,-73.858592,The incident occurred at Liberty Ave and 79th street in the Ozone Park area of Queens.,1,0,2,Armed Assault,15,Religious Figures/Institutions,85,Religious Figure,Unknown,Imam: Maulama Akonjee,217,United States,Unknown,Anti-Muslim,Anti-Muslim,5,Firearms,,2,,0,0,0,0,0,,,,,,
2016,9,24,United States,Missouri,Kansas City,39.099432,-94.578029,,1,0,7,Facility/Infrastructure Attack,15,Religious Figures/Institutions,86,Place of Worship,Islamic Center of Northland,Mosque,217,United States,Unknown,Anti-Muslim,Anti-Muslim,8,Incendiary,Two Molotov cocktails were used in the attack.,0,0,0,0,0,0,1,3,Minor (likely < $1 million),-99,A mosque was damaged in this attack.,,
1994,12,1,United States,California,Los Angeles,34.05349,-118.245319,,0,0,3,Bombing/Explosion,14,Private Citizens & Property,74,Marketplace/Plaza/Square,,Shopping Mall,217,United States,Unknown,Other/Unknown,NA,6,Explosives/Bombs/Dynamite,Explosive,0,,,0,,,1,,,,,0,
2001,11,14,United States,Connecticut,Oxford,41.439769,-73.126816,,1,0,8,Unarmed Assault,14,Private Citizens & Property,68,Named Civilian,Civilian,Ottilie Lundgren,217,United States,Unknown,Other/Unknown,NA,1,Biological,The victim suffered from the inhalation form of anthrax.,1,0,0,0,0,0,0,,,,,,
1999,3,28,United States,Texas,San Antonio,29.42449,-98.494624,,1,0,3,Bombing/Explosion,15,Religious Figures/Institutions,85,Religious Figure,Christian Evangelist,John Hagee,217,United States,Unknown,Anti-Christian,Anti-Christian,6,Explosives/Bombs/Dynamite,Pipe bomb sent in a package,0,0,0,0,0,0,1,3,Minor (likely < $1 million),,Mail equipment and machinery slightly damaged,0,
